store_name,store_number,address,address2,city,state,zip_code,country,phone_number,latitude,longitude,store_hours,other_fields,coming_soon
CHAUSSURES YELLOW,711292246,102 - 163 MONTE MASSON,,MASCOUCHE,QC,J7K 3B4,CA,(450) 4741672,45.7248954,-73.6190167,,,0
MARK'S WORK WEARHOUSE,711292749,139 Montee Masson N,,Mascouche,QC,J7K 3B4,CA,(450) 4741140,45.7233772,-73.6198116,,,0
CHAUSSURES YELLOW,711292253,1075 BOULEVARD DES SEIGNEURS,,TERREBONNE,QC,J6W 1V2,CA,(450) 4714165,45.7013642,-73.644549,,,0
CHAUSSURES RUBINO,711292231,712 BOULEVARD DES SEIGNEURS,,TERREBONNE,QC,J6W 1T6,CA,(450) 4920373,45.7026257,-73.6370899,,,0
SEARS,711293435,900 BOULEVARD GRIGNON,CARREFOUR DU NORD,ST.-JEROME,QC,J7Y 3S7,CA,,45.7944,-74.01528,,,0
SPI SECURITE JONQUIERE,711293539,60 GASTON DUMOULIN,,BLAINVILLE,QC,J7C 0A3,CA,(450) 4202012,45.67078,-73.84967,,,0
CHAUSSURES YELLOW,711292263,1145 BOULEVARD JEAN-BAPTISTE-ROLLAND O,,SAINT-JEROME,QC,J7Y 4Y7,CA,(450) 4367699,45.7698905,-74.0193378,,,0
MARK'S WORK WEARHOUSE,711292681,1035 Boul Jean-Baptiste-Rolland O,,Saint-Jerome,QC,J7Y 4Y7,CA,(450) 5653131,45.7667932,-74.019784,,,0
CHAUSSURES RUBINO,711292230,71 RUE VALMONT,,ST-JEROME,QC,J7Y 4Y2,CA,(450) 4368480,45.7573261419217,-74.0152792095126,,,0
LITTLE BURGUNDY,711292614,19001 CHEMIN NOTRE-DAME,,MIRABEL,QC,J7J 0T1,CA,(450) 9737922,45.67489,-73.9147,,,0
BROWNS SHOE SHOP,711292032,19001 CHEMIN NOTRE-DAME,,MIRABEL,QC,J7J 0T1,CA,(450) 4301930,45.67489,-73.9147,,,0
SPI SECURITE JONQUIERE,711293532,3603 MILLAR AVENUE,,SASKATOON,SK,S7P 0B2,CA,(306) 3743635,52.1892247738693,-106.646569849246,,,0
NORTHERN FACTORY WORKWEAR,711293256,3 - 602 CIRCLE DRIVE,,SASKATOON,SK,S7K 0T9,CA,(306) 6534800,52.15795,-106.64727,,,0
WORK AUTHORITY,711293828,20 - 510 CIRCLE DRIVE E,NORTH CIRCLE PLAZA,SASKATOON,SK,S7K 7C7,CA,(306) 2495524,52.15658,-106.63958,,,0
THE SHOE COMPANY,711293590,1718 PRESTON AVENUE N,,SASKATOON,SK,S7N 4Y1,CA,,52.1511607,-106.6193252,,,0
MARK'S WORK WEARHOUSE,711292795,1715 Preston Avenue N,,Saskatoon,SK,S7N 4V2,CA,(306) 4771444,52.1482484,-106.6191317,,,0
SWANK SHOE LOUNGE,711293557,157 2ND AVENUE N,,SASKATOON,SK,S7K 2A9,CA,(306) 9795775,52.1302427,-106.6633347,,,0
MARK'S WORK WEARHOUSE,711292918,300 Confederation Drive,,Saskatoon,SK,S7L 4R6,CA,(306) 3845565,52.1308608228607,-106.72215830462,,,0
SHOE WAREHOUSE,711293482,3510  8TH STREET E,,SASKATOON,SK,S7H 0W6,CA,,52.1146262790698,-106.597194418605,,,0
TRAXX FOOTWEAR,711293732,23 - 2105 8TH STREET EAST,,SASKATOON,SK,S7H 0T8,CA,(306) 9562272,52.11479,-106.5869,,,0
MARK'S WORK WEARHOUSE,711292928,3011 Clarence Avenue S,,Saskatoon,SK,S7T 0B4,CA,(306) 6532802,52.087761,-106.6454278,,,0
RONSONS,711293297,734 GRANVILLE STREET,,VANCOUVER,BC,V6Z 1E4,CA,(604) 6820795,49.2820818367347,-123.118709387755,,,0
BROWNS SHOE SHOP,711292074,725 GRANVILLE STREET,,VANCOUVER,BC,V7Y 1G5,CA,(604) 8911403,49.2821930612245,-123.118538979592,,,0
BROWNS SHOE SHOP,711292073,701 GEORGIA STREET W,,VANCOUVER,BC,V7Y 1G5,CA,(604) 6320102,49.28246,-123.11813,,,0
LITTLE BURGUNDY,711292633,701 WEST GEORGIA STREET,,VANCOUVER,BC,V7Y 1A1,CA,(604) 6840031,49.28246,-123.11813,,,0
LITTLE BURGUNDY,711292606,1035 ROBSON STREET,,VANCOUVER,BC,V6E 1A9,CA,(778) 3289757,49.2837410204082,-123.123458571429,,,0
BROWNS SHOE SHOP,711292024,1068 ROBSON STREET,,VANCOUVER,BC,V6E 1A7,CA,(604) 6840533,49.2841920408163,-123.124187142857,,,0
ARMY & NAVY DEPT STORE LTD,711291964,36 WEST CORDOVA STREET,,VANCOUVER,BC,V6B 1C9,CA,(604) 6826644,49.2826264583333,-123.105178333333,,,0
MARK'S WORK WEARHOUSE,711292819,1885 West 4 Avenue,,Vancouver,BC,V6J 1M4,CA,(604) 7362678,49.2683224,-123.14766,,,0
RONSONS,711293291,2845 GRANVILLE STREET,,VANCOUVER,BC,V6H 3J4,CA,(604) 7368183,49.2603824489796,-123.138693469388,,,0
MARK'S WORK WEARHOUSE,711292718,117 370 East Broadway,,Vancouver,BC,V5T 4G5,CA,(604) 8728271,49.2622958,-123.0972251,,,0
GRAVITY POPE,711292515,2203 W 4TH AVE,,VANCOUVER,BC,V6K 1N9,CA,(604) 7317647,49.2682,-123.1556044,,,0
RONSONS,711293299,94 - 935 MARINE DRIVE,,NORTH VANCOUVER,BC,V7P 1S3,CA,(604) 9715303,49.32118,-123.09464,,,0
SEARS,711293438,943 MARINE DRIVE,,NORTH VANCOUVER,BC,V7P 1S1,CA,,49.3228478947368,-123.099334210526,,,0
MARK'S WORK WEARHOUSE,711292688,1074 Marine Drive,,North Vancouver,BC,V7P 1S5,CA,(604) 9849591,49.32385,-123.10381,,,0
THE SHOE COMPANY,711293606,2002 PARK ROYAL S,,WEST VANCOUVER,BC,V7T 2W4,CA,,49.3247512538703,-123.14033,,,0
ALWAYS DISCOUNT BOOTS,711291952,1435 KINGSWAY,,VANCOUVER,BC,V5N 2R6,CA,(604) 8720319,49.24971375,-123.075125,,,0
BROWNS SHOE SHOP,711292084,C772 MAIN ST-PARK ROYAL S,,WEST VANCOUVER,BC,V7T 0A5,CA,(604) 9229204,49.325809,-123.140432,,,0
RONSONS,711293298,934 PARK ROYAL SHOPPING CENTRE SOUTH,,WEST VANCOUVER,BC,V7T 1A1,CA,(604) 9226406,49.32667,-123.14425,,,0
BROWNS SHOE SHOP,711292069,650 41ST AVENUE W,,VANCOUVER,BC,V5Z 2M9,CA,(604) 2613071,49.2319615,-123.118505,,,0
RONSONS,711293288,2145 - WEST 41ST AVENUE,,VANCOUVER,BC,V6M 1Z6,CA,(604) 2615305,49.234727,-123.156726,,,0
MARK'S WORK WEARHOUSE,711292744,1329 Main Street,,North Vancouver,BC,V7J 3J7,CA,(604) 9240712,49.3065527272727,-123.037320909091,,,0
MARK'S WORK WEARHOUSE,711292901,2820 Bentall Street,,Vancouver,BC,V5M 4H4,CA,(778) 3274166,49.2591219047619,-123.032057619048,,,0
SEARS,711293321,100 - 4567 LOUGHEED HWY,BRENTWOOD SHOPPING CENTRE,BURNABY,BC,V5C 3Z7,CA,,49.2656,-123.02348,,,0
MARK'S WORK WEARHOUSE,711293166,8129 Ontario Street,,Vancouver,BC,V5X 0A7,CA,(778) 3314334,49.21109321635,-123.106565839183,,,0
RONSONS,711293289,2301 - 4700 KINGSWAY,,BURNABY,BC,V5H 4M1,CA,(604) 4331255,49.2323,-123.02353,,,0
BROWNS SHOE SHOP,711292050,4700 KINGSWAY,,BURNABY,BC,V5H 4M1,CA,(604) 4300463,49.22836,-122.99919,,,0
LITTLE BURGUNDY,711292625,4700 KINGSWAY STREET,,BURNABY,BC,V5H 4P1,CA,(604) 4306361,49.22836,-122.99919,,,0
SEARS,711293395,4750 KINGSWAY,METRO TOWN CENTRE,SOUTH BURNABY,BC,V5H 2C2,CA,,49.22786,-122.99762,,,0
DSW,711292405,2205-4751 McCLELLAND ROAD,,RICHMOND HILL,BC,V6X 2K5,CA,,49.177042,-123.0975581,,,0
RONSONS,711293300,956 - 5300 NUMBER 3 ROAD,,RICHMOND,BC,V6X 2X9,CA,(778) 2977189,49.1755327,-123.1324264,,,0
RONSONS,711293286,1503 - 6551 NUMBER 3 ROAD,,RICHMOND,BC,V6Y 2B6,CA,(604) 2732010,49.1669584,-123.1384754,,,0
BROWNS SHOE SHOP,711292070,6551 NUMBER 3 ROAD,,RICHMOND,BC,V6Y 2B6,CA,(604) 2760331,49.1669584,-123.1384754,,,0
MARK'S WORK WEARHOUSE,711293143,7250 Market Crossing,,Burnaby,BC,V5J 0A2,CA,(604) 4349143,49.2003451218805,-122.983430882333,,,0
MARK'S WORK WEARHOUSE,711292711,11380 Steveston Highway,,Richmond,BC,V7A 5J5,CA,(604) 2414016,49.13333,-123.098703117489,,,0
MARK'S WORK WEARHOUSE,711293173,8400 River Road,,Delta,BC,V4G 1B5,CA,,49.1509945087774,-122.991036473668,,,0
MIDLANDS WORKWEAR PLUS LTD,711293220,1080 CLIVEDON AVE. UNIT 2,,DELTA,BC,V3M 6G6,CA,(604) 5270080,49.1723186033457,-122.946586871562,,,0
ARMY & NAVY DEPT STORE LTD,711291965,502 COLUMBIA STREET,,NEW WESTMINSTER,BC,V3L 1B1,CA,(604) 5264661,49.2038667346939,-122.906624897959,,,0
MARK'S WORK WEARHOUSE,711292700,1090 Lougheed Highway,,Coquitlam,BC,V3K 6G9,CA,(604) 5151232,49.2346427751417,-122.862747442612,,,0
MARK'S WORK WEARHOUSE,711293077,5259 Ladner Trunk Road,,Delta,BC,V4K 1W4,CA,(604) 9468232,49.0902345454545,-123.076978181818,,,0
RONSONS,711293290,2332 - 2929 BARNET HIGHWAY,,COQUITLAM,BC,V3B 5R5,CA,(604) 9442882,49.27789,-122.81661,,,0
MARK'S WORK WEARHOUSE,711293156,7908 120 Street,,Surrey,BC,V3W 3N2,CA,(604) 5901566,49.1469732290087,-122.89023,,,0
SEARS,711293367,2929 BARNET HIGHWAY,THE COQUITLAM CENTRE,COQUITLAM,BC,V3B 5R5,CA,,49.2771137982701,-122.800372047752,,,0
WORK AUTHORITY,711293854,7241  120 STREET,,DELTA,BC,V4C 6P5,CA,(604) 5911334,49.1347805263158,-122.890444736842,,,0
CROCKERS MEN'S & BOYS WEAR LTD,711292383,130 NEWCASTLE BLVD,,MIRAMICHI,NB,E1V 2L7,CA,(506) 6224557,47.0014707692308,-65.5648411538462,,,0
MARK'S WORK WEARHOUSE,711293206,99 Douglastown Blvd,,Miramichi,NB,E1V 0A4,CA,(506) 7789500,47.0360818575544,-65.4911727424001,,,0
MISTER SAFETY SHOES INC.,711293226,101-2251 DUNDAS STREET,,LONDON,ON,N5V 0B5,CA,(519) 4530000,42.9830404,-81.2520868,,,0
HOMEWOOD HEALTH PRODUCTS,711292533,277 ADELAIDE STREET S,,LONDON,ON,N5Z 3K7,CA,(519) 6421164,42.9613970291633,-81.2182000846677,,,0
WORK AUTHORITY,711293822,1407 DUNDAS STREET,,LONDON,ON,N5W 3B7,CA,(519) 4514550,42.9977986666667,-81.200412,,,0
J. SEIGEL FOOTWEAR INC.,711292541,1295 HIGHBURY AVE N,,LONDON,ON,N5Y 5L3,CA,(519) 4529994,43.0205839,-81.2167788,,,0
FACTORY SHOE,711292456,9 SOUTHDALE ROAD E,,LONDON,ON,N6C 6B4,CA,(519) 6856199,42.9407657142857,-81.2574157142857,,,0
SEARS,711293427,785 WONDERLAND ROAD SOUTH,WESTMOUNT SHOPPING CENTRE,LONDON,ON,N6K 1M6,CA,,42.94774,-81.2891266666667,,,0
THE SHOE COMPANY,711293721,94 FANSHAW PARK ROAD E,,LONDON,ON,N5X 4C5,CA,,43.0279,-81.27819,,,0
MARK'S WORK WEARHOUSE,711292796,1737 Richmond Street,,London,ON,N5X 3Y2,CA,(519) 8509980,43.0277044897959,-81.2831842857143,,,0
THE SHOE COMPANY,711293631,3099 WONDERLAND ROAD E,,LONDON,ON,N6L 1R4,CA,,42.9363777418384,-81.2807951668508,,,0
MARK'S WORK WEARHOUSE,711292937,3110 Wonderland Road S,,London,ON,N6L 1A6,CA,(519) 6491393,42.9361137144035,-81.2807337296977,,,0
MARK'S WORK WEARHOUSE,711292828,1925 Dundas Street E,,London,ON,N5V 1P7,CA,(519) 6597462,43.00526,-81.17402,,,0
MARK'S WORK WEARHOUSE,711292708,1121 Wellington Road S,,London,ON,N6E 1M1,CA,(519) 6853360,42.9311088888889,-81.2208888888889,,,0
DSW,711292412,3198 WONDERLAND ROAD S,,LONDON,ON,N6L 1A1,CA,,42.9337885859447,-81.2801931573345,,,0
TSC STORES,711293744,1435 HYDE PARK ROAD,,LONDON,ON,N6H 0B5,CA,,42.9949323376623,-81.3302296103896,,,0
TSC STORES,711293756,1780 WHARNCLIFFE ROAD S,,LAMBETH,ON,N6L 1K1,CA,,42.9225726229508,-81.2785485245902,,,0
TSC STORES,711293761,2209 DUNDAS STREET E,,LONDON,ON,N5V 1R4,CA,,43.0095206666667,-81.1583873333333,,,0
TSC STORES,711293739,115 EDWARD STREET,,ST THOMAS,ON,N5P 4L9,CA,,42.78592,-81.17199,,,0
R-SAFETY,711293301,39 BURWELL ROAD,,ST THOMAS,ON,N5P 1G6,CA,(519) 6335884,42.7816723076923,-81.1657676923077,,,0
MARK'S WORK WEARHOUSE,711292687,1063 Talbot Street,,St. Thomas,ON,N5P 1G4,CA,(519) 6378915,42.77878,-81.1723,,,0
THE SHOE COMPANY,711293672,519 WESTMORLAND ROAD,,SAINT JOHN,NB,E2J 3W9,CA,,45.30882,-66.01728,,,0
MARK'S WORK WEARHOUSE,711292793,171 McAllister Drive,,Saint John,NS,E2J 2S6,CA,(506) 6341815,45.3112808512527,-66.0186345883681,,,0
SEARS,711293391,441 WESTMORELAND ROAD,MCALLSITER PLACE,SAINT JOHN,NB,E2J 3T1,CA,,45.3049428799661,-66.0199724631846,,,0
SCHOONER INDUSTRIAL PRODUCTS,711293311,438 GRANDVIEW AVENUE,,SAINT JOHN,NB,E2J 4M9,CA,(506) 6341491,45.2775527,-66.0094795,,,0
SOURCE ATLANTIC,711293515,438 GRANDVIEW AVENUE,,SAINT JOHN,NB,E2J 4M9,CA,(506) 6341491,45.2775527,-66.0094795,,,0
CHANDLER SUPPLIERS,711292105,225 THORNE AVENUE,PO BOX 431,SAINT JOHN,NB,E2L 4L9,CA,(506) 6588000,45.27581,-66.05693,,,0
GREEN LEE SHOE LTD,711292517,59 BENTLEY ST,,SAINT JOHN,NB,E2K 1B2,CA,(506) 6931455,45.2681366666667,-66.0795333333333,,,0
SOURCE ATLANTIC,711293513,331 CHELSEY DRIVE,,SAINT JOHN,NB,E2K 5A5,CA,(1888) 8467637,45.2651664,-66.0803872,,,0
MARK'S WORK WEARHOUSE,711293178,885 Fairville Blvd,,Saint John,NB,E2M 5T9,CA,(506) 6341005,45.24946,-66.10281,,,0
MARK'S WORK WEARHOUSE,711292678,1031 Manitoba Avenue,,Selkirk,MB,R1A 3T7,CA,(204) 7851021,50.1560129554656,-96.8979971659919,,,0
SEARS,711293346,1555 REGENT AVE W,KILDONAN PLACE,WINNIPEG,MB,R2C 4J2,CA,,49.94664,-97.0959,,,0
MARK'S WORK WEARHOUSE,711293190,915 Leila Avenue,,Winnipeg,MB,R2V 3J7,CA,(204) 3386789,49.9538974,-97.1466175,,,0
SEARS,711293360,2311 MCPHILLIPS STREET,GARDEN CITY SHOPPING CENTRE,WINNIPEG,MB,R2V 3C9,CA,,49.95259,-97.14815,,,0
SHOE WAREHOUSE,711293466,1375 McPHILLIPS STREET,,WINNIPEG,MB,R2V 3V1,CA,,49.9408439470723,-97.1584945275482,,,0
SHOE WAREHOUSE,711293471,1555 REGENT AVENUE W,,WINNIPEG,MB,R2C 4J2,CA,,49.8985215,-97.0599955,,,0
WORK BOOT FACTORY OUTLET STORE,711293863,20 - 1500 REGENT AVENUE W,,WINNIPEG,MB,R2C 3A8,CA,(204) 6630000,49.8947057,-97.0525798,,,0
CANADIAN FOOTWEAR,711292100,1530 REGENT AVENUE,,WINNIPEG,MB,R2C 4J5,CA,(204) 9447466,49.8956189,-97.0595157,,,0
MARK'S WORK WEARHOUSE,711292781,1580 Regent Avenue W,,Winnipeg,MB,R2C 2Y9,CA,(204) 6634824,49.8963686,-97.0663673,,,0
CHAUSSURES YELLOW,711292275,180 BOULEVARD D'ANJOU,,CHATEAUGUAY,QC,J6K 1C4,CA,(450) 6929511,45.35992,-73.7282,,,0
LES VENTES UNIVERSELLES C.B. E,711292595,30 RUE SAINT ANDRE,,SAINT REMI,QC,J0L 2L0,CA,(450) 4547967,45.2586166,-73.6188116,,,0
MARK'S WORK WEARHOUSE,711293068,510 Voie de Desserte,,St-Constant,QC,J5A 2S6,CA,(450) 6330446,45.3884702142051,-73.5719666089123,,,0
CHAUSSURES YELLOW,711292307,450 - 520 ROUTE 132,,SAINT-CONSTANT,QC,J5A 2S6,CA,(450) 6326997,45.388194391925,-73.5715329407228,,,0
SEARS,711293374,3055 BOULEVARD COTE-VERTU,PLACE VERTU,VILLE SAINT-LAURENT,QC,H9R 1Y6,CA,,45.44992,-73.82333,,,0
CHAUSSURES RUBINO,711292229,70 ROUTE 132,,DELSON,QC,J5B 1Z2,CA,(450) 6352626,45.3859128176999,-73.5492296909863,,,0
LES MAGASINS COLLINS,711292585,7401 BOULEVARD NEWMAN,,LASALLE,QC,H8N 1X3,CA,(514) 3652590,45.441224,-73.620865,,,0
CHAUSSURES YELLOW,711292326,7197 BOULEVARD NEWMAN,,LASALLE,QC,H8N 2K3,CA,(514) 3673805,45.4429942,-73.6162928,,,0
MARK'S WORK WEARHOUSE,711292815,183A Boul Hymus,,Pointe-Claire,QC,H9R 1E9,CA,(514) 4280132,45.4620423,-73.8184968,,,0
MARK'S WORK WEARHOUSE,711292820,189 Boul Hymus,,Pointe Claire,QC,H9R 1E9,CA,(514) 4281266,45.4619255,-73.8206086,,,0
SEARS,711293415,6901 AUTOROUTE TRANSCANADIENNE,CENTRE FAIRVIEW POINTE-CLAIRE,POINTE-CLAIRE,QC,H9R 5J2,CA,,45.4616321569114,-73.8310282304168,,,0
LITTLE BURGUNDY,711292632,6801 TRANS-CANADA HIGHWAY,,POINTE-CLAIRE,QC,H9R 5J2,CA,(514) 6945348,45.4619581376075,-73.830392170522,,,0
BROWNS SHOE SHOP,711292071,6801 AUTOROUTE TRANSCANADIENNE,,POINTE-CLAIRE,QC,H9R 5J2,CA,(514) 6954931,45.4619581376075,-73.830392170522,,,0
SEARS,711293419,7071 BOULEVARD NEWMAN,LE CARREFOUR ANGRIGNON,LASALLE,QC,H8N 1X1,CA,,45.44785,-73.60971,,,0
GLOBO,711292489,6321 TRANS-CANADA UNIT#135,,POINTE-CLAIRE,QC,H9R 5M9,CA,(514) 6974562,45.4673671,-73.8243332,,,0
EQUIPMENT SECURITE UNIVERSEL INC,711292438,6855 RUE ST.JACQUES OUEST,,MONTREAL,QC,H4B 1V3,CA,(514) 3696699,45.4577432963397,-73.6284614521847,,,0
MARK'S WORK WEARHOUSE,711293130,6801 Boul Newman,,Lasalle,QC,H8N 3E4,CA,(514) 3645677,45.4496851,-73.6086581,,,0
HERARD & FILS NETTOYEUR INC,711292532,100 BOUL DON QUICHOTTE,,ILE PERROT,QC,J7V 6L7,CA,(514) 4538511,45.3878677656786,-73.9616476746394,,,0
CHAUSSURES RUBINO,711292202,3131 BOULEVARD DES SOURCES,,D.D.O.,QC,H9B 1Z6,CA,(514) 6857979,45.48216,-73.7949,,,0
EXPERT AU TRAVAIL,711292447,3189 RUE DE MINIAC,,SAINT-LAURENT,QC,H4S 1S9,CA,(514) 3339617,45.4975827272727,-73.7545963636364,,,0
CHAUSSURES RUBINO,711292228,6900 BOULEVARD DECARIE,,COTE ST-LUC,QC,H3X 2T8,CA,(514) 3407779,45.4909521,-73.6506788,,,0
CHAUSSURES YELLOW,711292304,4010 RUE WELLINGTON,,VERDUN,QC,H4G 1V3,CA,(514) 7276618,45.4637388888889,-73.5669466666667,,,0
CHAUSSURES YELLOW,711292299,401 BOULEVARD HARWOOD,,VAUDREUIL-DORION,QC,J7V 7W1,CA,(450) 5101785,45.38002,-74.019699,,,0
CHAUSSURES YELLOW,711292272,1500 AVENUE ATWATER,,MONTREAL,QC,H3Z 1X5,CA,(514) 9342572,45.48971,-73.5852,,,0
MARK'S WORK WEARHOUSE,711293107,600 Autoroute 13 Boul Samson O,,Laval,QC,H7X 3S9,CA,(450) 9692232,45.522191,-73.7853447,,,0
GLOBO,711292494,850 AUTOROUTE 13 ET BOULEVARD SAMSON,,SAINTE-DOROTHEE,QC,H7X 3S9,CA,(450) 9691296,45.5234705,-73.7799546,,,0
TSC STORES,711293797,95 BASELINE ROAD W,,BOWMANVILLE,ON,L1C 5G3,CA,,43.90051,-78.67888,,,0
MARK'S WORK WEARHOUSE,711292842,2000 Green Road,,Bowmanville,ON,L1C 3K7,CA,(905) 6238889,43.90952,-78.71215,,,0
WORK AUTHORITY,711293826,197 BLOOR STREET E,,OSHAWA,ON,L1H 3M3,CA,(905) 4360460,43.882065,-78.848575,,,0
THE SHOE COMPANY,711293723,991 TAUNTON ROAD E,,OSHAWA,ON,L1H 7K5,CA,,43.9411300455574,-78.8423105538002,,,0
MARK'S WORK WEARHOUSE,711292751,1397 Harmony Road N,,Oshawa,ON,L1H 7K5,CA,(905) 5715992,43.9407506438342,-78.849963521658,,,0
MISTER SAFETY SHOES INC.,711293239,310 BLOOR STREET W,,OSHAWA,ON,L1J 1R2,CA,(905) 7280300,43.8780925342466,-78.866049109589,,,0
MARK'S WORK WEARHOUSE,711293008,421 Gibb Street,,Oshawa,ON,L1J 1Z4,CA,(905) 7233431,43.88687,-78.8762471428571,,,0
SEARS,711293387,419 KING STREET WEST,OSHAWA SHOPPING CENTRE,OSHAWA,ON,L1J 2K6,CA,,43.8939,-78.87978,,,0
SHOE WAREHOUSE,711293489,419 KING STREET W,,OSHAWA,ON,L1J 2K5,CA,,43.8939,-78.87978,,,0
MARK'S WORK WEARHOUSE,711292800,1751 Victoria Street E,,Whitby,ON,L1N 9W4,CA,(905) 4404818,43.8675077484057,-78.8994283598472,,,0
DSW,711292399,1650 VICTORIA STREET E,,WHITBY,ON,L1N 2C3,CA,,43.8663127122315,-78.902238189368,,,0
MARK'S WORK WEARHOUSE,711293005,4160 Baldwin Street S,,Whitby,ON,L1R 3H8,CA,(905) 6200994,43.9180687960773,-78.9584800982838,,,0
MARK'S WORK WEARHOUSE,711293150,76 Starrs Road,,Yarmouth,NS,B5A 2T5,CA,(902) 7490603,43.8439731462274,-66.1067273722049,,,0
BROWNS SHOE SHOP,711292027,1191 RUE SAINTE-CATHERINE O,,MONTREAL,QC,H3B 1K4,CA,(514) 9871206,45.4990121,-73.5741294,,,0
LITTLE BURGUNDY,711292608,1127 SAINTE-CATHERINE O,,MONTREAL,QC,H3B 1H8,CA,(514) 2869414,45.4996638,-73.5736884,,,0
BELLINI CHAUSSURES,711291991,1119 RUE SAINTE-CATHERINE QUEST,,MONTREAL,QC,H3B 1H8,CA,(514) 2886144,45.499713,-73.573478,,,0
LITTLE BURGUNDY,711292609,1500 MCGILL COLLEGE AVENUE,,MONTREAL,QC,H3A 3J5,CA,(514) 2865690,45.5023402,-73.5723526,,,0
LITTLE BURGUNDY,711292637,705 RUE SAINTE-CATHERINE O,,MONTREAL,QC,H3B 4G5,CA,(514) 8443226,45.5027544,-73.5714715,,,0
GLOBO,711292491,705 RUE SAINTE-CATHERINE OUEST,,MONTREAL,QC,H3B 4G5,CA,(514) 8496767,45.5027544,-73.5714715,,,0
BROWNS SHOE SHOP,711292018,1 PLACE VILLE MARIE,,MONTREAL,QC,H3B 3Y1,CA,(514) 8618925,45.5014589,-73.5691198,,,0
BROWNS SHOE SHOP,711292036,2305 CHEMIN ROCKLAND,,MONTREAL,QC,H3P 3E9,CA,(514) 7380339,45.5266083838384,-73.648565959596,,,0
LITTLE BURGUNDY,711292616,2305 CHEMIN ROCKLAND,,MONT-ROYAL,QC,H3P 3E9,CA,(514) 7313806,45.5266083838384,-73.648565959596,,,0
GROUPE TF FIRMA INC,711292519,1435 SAINT ALEXANDRES,SUITE 103,MONTREAL,QC,H3A 2G4,CA,(514) 8403054,45.5059069,-73.568151,,,0
MILE END KICKS,711293224,5403 AVE DU PARK,,MONTREAL,QC,H2V 4G9,CA,(514) 6524033,45.521959,-73.6012081,,,0
LITTLE BURGUNDY,711292629,55 AVENUE MONT ROYAL E,,MONTREAL,QC,H2T 1N6,CA,(514) 8420851,45.50334,-73.55401,,,0
GLOBO,711292493,775 RUE DU MARCHE CENTRAL,,MONTREAL,QC,H4N 3J7,CA,(514) 3874562,45.5337241520468,-73.6540421637427,,,0
MARK'S WORK WEARHOUSE,711293169,835 Rue Chabanel O,,Montreal,QC,H4N 3J7,CA,(514) 3810550,45.5353336398589,-73.6559973760242,,,0
CHAUSSURES YELLOW,711292343,929 RUE SAINTE-CATHERINE E,,MONTREAL,QC,H2L 2E5,CA,(514) 8437267,45.5168822,-73.5578287,,,0
CHAUSSURES YELLOW,711292320,6641 RUE SAINT-HUBERT,,MONTREAL,QC,H2S 2M5,CA,(514) 2795793,45.5374468,-73.6052734,,,0
CHAUSSURES YELLOW,711292276,1815 AVENUE DU MONT-ROYAL E,,MONTREAL,QC,H2H 1J2,CA,(514) 5260172,45.5330762068966,-73.5744286206897,,,0
TONY PAPPAS INC,711293727,1822 AVENUE DU MONT-ROYAL EST,,MONTREAL,QC,H2H 1J1,CA,(514) 5210820,45.5331768965517,-73.5743306896552,,,0
CHAUSSURES RUBINO,711292198,2674 RUE DE SALABERRY,,AHUNTSIC-CARTIERVILLE,QC,H3M 1L3,CA,(514) 3344607,45.5376006060606,-73.6998418181818,,,0
VETEMENTS PATRICK,711293804,6631 AVENUE PAPINEAU,,MONTREAL,QC,H2G 2X3,CA,(514) 5088850,45.5442105050505,-73.5989051515151,,,0
CHAUSSURES BELMONT INC,711292116,2148 RUE BEAUBEIN E,,MONTREAL,QC,H2G 1M6,CA,(514) 7215550,45.5458628571429,-73.5942563265306,,,0
SEARS,711293357,2151 BOULEVARD LAPINIERE,MAIL CHAMPLAIN,BROSSARD,QC,J4W 2T5,CA,,45.46686,-73.49748,,,0
CHAUSSURES YELLOW,711292295,3610 RUE ONTARIO E,,MONTREAL,QC,H1W 1R7,CA,(514) 5252312,45.54531,-73.5446938461538,,,0
CHAUSSURES BO PIED,711292118,825 RUE SAINT LAURENT O,,LONGUEUIL,QC,J4K 2V1,CA,(450) 6770472,45.5287746,-73.5155384,,,0
CHAUSSURES RUBINO,711292233,825 RUE ST-LAURENT OUEST,,LONGUEUIL,QC,J4K 5J4,CA,(450) 6518778,45.528155140229,-73.5134418224141,,,0
BROWNS SHOE SHOP,711292034,2151 BOULEVARD LAPINIÈRE,,BROSSARD,QC,J4W 2T5,CA,(450) 6713531,45.47412,-73.470639,,,0
LES MAGASINS COLLINS,711292583,444 AVENUE DE LA SALLE,,MONTREAL,QC,H1V 2J1,CA,(514) 5267931,45.5491617075908,-73.5318663542933,,,0
CHAUSSURES RUBINO,711292208,4465 RUE JEAN-TALON EST,,ST-LEONARD,QC,H1S 1K2,CA,(514) 7237776,45.5703535135135,-73.5880805405405,,,0
CHAUSSURES RUBINO,711292232,7350 BOULEVARD TASCHEREAU,,BROSSARD,QC,J4W 1M9,CA,(450) 4656060,45.4595271,-73.4653088,,,0
CHAUSSURES YELLOW,711292310,4510 RUE JEAN-TALON E,,SAINT-LEOONARD,QC,H1S 1K2,CA,(514) 7276618,45.5707016225349,-73.5877909347782,,,0
CHAUSSURES RUBINO,711292177,1545 BOULEVARD LE CORBUSIER,,CHOMEDEY LAVAL,QC,H7S 2K6,CA,(450) 6825956,45.56209,-73.72877,,,0
MARK'S WORK WEARHOUSE,711292784,1600 Boul le Corbusier,,Laval,QC,H7S 1Y9,CA,(450) 6870713,45.5636490909091,-73.7308036363636,,,0
MARK'S WORK WEARHOUSE,711293040,4970 - 5000 Boul Taschereau,,Greenfield Park,QC,J4V 3M3,CA,(450) 6713750,45.4823827840665,-73.4649089872374,,,0
CHAUSSURES BELMONT INC,711292117,3509 BOULEVARD ST-MARTIN OUEST,,LAVAL,QC,H7T 1A2,CA,(450) 6884550,45.5552114,-73.7525966,,,0
CHAUSSURES YELLOW,711292282,2232 BOULEVARD DES LAURENTIDES,,LAVAL,QC,H7G 2T9,CA,(450) 6299012,45.5776259,-73.7004557,,,0
CHAUSSURES BELMONT INC,711292115,2098 CHEMIN CHAMBLY,,LONGUEUIL,QC,J4J 3Y7,CA,(450) 4429993,45.52776,-73.47776,,,0
BROWNS SHOE SHOP,711292046,3035 BOULEVARD LE CARREFOUR,,LAVAL,QC,H7T 1C8,CA,(450) 6814924,45.5683372654487,-73.7499373189898,,,0
LITTLE BURGUNDY,711292620,3003 BOULEVARD LE CARREFOUR,,LAVAL,QC,H7T 1C7,CA,(450) 9737922,45.5694590353043,-73.7480099185285,,,0
SEARS,711293371,3005 BOUL. LE CARREFOUR,CARREFOUR LAVAL,LAVAL,QC,H7T 1C7,CA,,45.5694525294203,-73.7480249321071,,,0
LES MAGASINS COLLINS,711292580,2393 BOULEVARD CURE-LABELLE,,LAVAL,QC,H7T 1R3,CA,(450) 6820940,45.559781256397,-73.769776075044,,,0
GLOBO,711292484,3204 AVENUE JEAN-BERAUD,,LAVAL,QC,H7T 2S4,CA,(450) 6814562,45.5686441306026,-73.757107895645,,,0
CHAUSSURES RUBINO,711292205,3350 BOULEVARD DE LA CONCORDE EST,,DUVERNAY LAVAL,QC,H7E 2C2,CA,(450) 6640990,45.5935768176203,-73.6636246987791,,,0
BROWNS SHOE SHOP,711292081,9200 BOULEVARD LEDUC,,BROSSARD,QC,J4Y 0L1,CA,(450) 4623103,45.4457992,-73.4375998,,,0
MARK'S WORK WEARHOUSE,711293202,9700 Boul Leduc,,Brossard,QC,J4Y 0B3,CA,(450) 6788898,45.441048,-73.4373477,,,0
BROWNS SHOE SHOP,711292082,9405 BOULEVARD LEDUC,,BROSSARD,QC,J4Y 0A5,CA,(450) 4627717,45.4425543,-73.4367916,,,0
CHAUSSURES YELLOW,711292292,3205 AUTOROUTE LAVAL O,,LAVAL,QC,H7P 5P2,CA,(450) 6826962,45.5707036567164,-73.7601412686567,,,0
CHAUSSURES YELLOW,711292348,9620 BOULEVARD LEDUC,,BROSSARD,QC,J4Y 0B3,CA,(450) 4454563,45.4416084,-73.4365666,,,0
LITTLE BURGUNDY,711292643,9405 LEDUC,,BROSSARD,QC,J4Y 0A5,CA,(450) 4430520,45.4431907004763,-73.4358638178432,,,0
GLOBO,711292495,9650 BOULEVARD LEDUC SUITE 12,,BROSSARD,QC,J4Y 0A5,CA,(450) 6566444,45.4414342,-73.434777,,,0
CHAUSSURES RUBINO,711292204,3235 AVENUE DE GRANBY,,MONTREAL-EST,QC,H1N 2Z7,CA,(514) 2549400,45.5805592857143,-73.5418578571429,,,0
CHAUSSURES YELLOW,711292278,2019 BOULEVARD ROLAND-THERRIEN,,LONGUEUIL,QC,J4N 1A3,CA,(450) 4483081,45.5376063,-73.4718263,,,0
CHAUSSURES RUBINO,711292227,5930 BOULEVARD DES-GRANDES-PRAIRIES,,ST-LEONARD,QC,H1P 1A4,CA,(514) 3267901,45.6003088,-73.6107379,,,0
CHAUSSURES RUBINO,711292235,9300 RUE DU PRADO,,ST-LEONARD,QC,H1P 3B4,CA,(514) 3260566,45.6009822222222,-73.6077474074074,,,0
GLOBO,711292490,6874 JEAN-TALON EST,,MONTREAL,QC,H1S 1N1,CA,(514) 2564562,45.5958923198648,-73.5716448383843,,,0
LES MAGASINS COLLINS,711292582,3686 CHEMIN CHAMBLY,,LONGUEUIL,QC,J4L 1N8,CA,(450) 4425010,45.5124132773109,-73.4412876470588,,,0
CHAUSSURES YELLOW,711292319,6000 BOULEVARD HENRI-BOURASSA E,,MONTREAL-NORD,QC,H1G 2T6,CA,(514) 3223601,45.6060223,-73.6168531,,,0
SEARS,711293420,7451 BOUL. GALERIES D'ANJOU,LES GALERIES D'ANJOU,D'ANJOU,QC,H1M 3A3,CA,,45.5973326174497,-73.5636111409396,,,0
CHAUSSURES 22,711292113,4585 CHEMIN DE CHAMBLY,,ST HUBERT,QC,J3Y 3M9,CA,(450) 6786828,45.51007,-73.4359,,,0
BROWNS SHOE SHOP,711292075,7999 BOULEVARD DES GALERIES D'ANJOU,,MONTREAL,QC,H1M 1W9,CA,(514) 3536980,45.59917,-73.56892,,,0
MARK'S WORK WEARHOUSE,711293160,7999 Boul Les Galeries D'Anjou,,Anjou,QC,H1M 1W9,CA,(514) 4936890,45.59917,-73.56892,,,0
GLOBO,711292492,7275 SHERBROOKE EST,,MONTREAL,QC,H1N 1E9,CA,(514) 3541636,45.5900357142857,-73.5389514285714,,,0
CHAUSSURES YELLOW,711292327,7275 RUE SHERBROOKE E,,MONTREAL,QC,H1N 1E9,CA,(514) 3530332,45.5900357142857,-73.5389514285714,,,0
MARK'S WORK WEARHOUSE,711293041,4975 Boul Robert Bourassa,,Laval,QC,H7E 0A4,CA,(450) 6654472,45.6087038742131,-73.6954393014498,,,0
CHAUSSURES RUBINO,711292181,1903 BOULEVARD RENE-LAENNEC,,VIMONT LAVAL,QC,H7M 5E2,CA,(450) 6295919,45.6056,-73.71571,,,0
CHAUSSURES YELLOW,711292317,5280 BOULEVARD ROBERT-BOURASSA,,LAVAL,QC,H7E 0A6,CA,(450) 6645773,45.6101107,-73.6996711,,,0
CHAUSSURES RUBINO,711292218,5827 BOULEVARD COUSINEAU,,ST-HUBERT,QC,J3Y 7P5,CA,(450) 4624931,45.4963747,-73.4126978,,,0
EXPERT AU TRAVAIL,711292440,200 - 9201 BOUL METROPOLITAIN EST,,ANJOU,QC,H1J 1K2,CA,(514) 3553785,45.6188234,-73.5556217,,,0
EXPERT AU TRAVAIL,711292439,100 - 12 BOULEVARD DE MORTAGNE,,BOUCHERVILLE,QC,J4B 5M7,CA,(450) 6413951,45.5758522532182,-73.4467491277865,,,0
CHAUSSURES YELLOW,711292270,1485 BOULEVARD SAINT-BRUNO,,SAINT-BRUNO,QC,J3V 6J1,CA,(450) 4613428,45.50607,-73.38231,,,0
MARK'S WORK WEARHOUSE,711293070,511 Boul des Promenades,,St-Bruno de Montarville,QC,J3V 6A8,CA,(450) 4612011,45.5055524,-73.379282,,,0
GLOBO,711292481,1195 BOULEVARD DES PROMENADES,,ST-BRUNO,QC,J3V 6H1,CA,(450) 4410030,45.5023307,-73.3764973,,,0
LITTLE BURGUNDY,711292610,159 BOULEVARD DES PROMENADES,,SAINT-BRUNO,QC,J3V 5J5,CA,(450) 4410510,45.50992,-73.37974,,,0
SEARS,711293416,700 BOUL DES PROMENADES,LES PROMENADES SAINT-BRUNO,ST-BRUNO MONTARVILLE,QC,J3V 5J8,CA,,45.50276,-73.37414,,,0
BROWNS SHOE SHOP,711292045,301 BOULEVARD DES PROMENADES,,SAINT-BRUNO-DE-MONTARVILLE,QC,J3V 6A7,CA,(450) 4419010,45.50678,-73.37458,,,0
CHAUSSURES RUBINO,711292234,9073 BOULEVARD MAURICE-DUPLESSIS,,R.D.P.,QC,H1E 6M3,CA,(514) 4944240,45.64633,-73.57005,,,0
CHAUSSURES RUBINO,711292179,175 25EME AVENUE,,ST-EUSTACHE,QC,J7P 2V1,CA,(450) 4735002,45.574194,-73.873508,,,0
AMSAL INC,711291953,11465 SHERBROOKE EST,,MONTREAL EST,QC,H1B 1C2,CA,(514) 6457477,45.6365628079214,-73.5163649683166,,,0
CHAUSSURES RUBINO,711292186,247 BOULEVARD LABELLE,,ROSEMERE,QC,J7A 2H3,CA,(450) 4307956,45.6242455,-73.8046793,,,0
GLOBO,711292488,582 CHEMIN DE LA TOURAINE,,BOUCHERVILLE,QC,J4B 5E4,CA,(450) 4490245,45.5753955138133,-73.4054220868179,,,0
MARK'S WORK WEARHOUSE,711293096,582 Chemin de Touraine,,Boucherville,QC,J4B 5E4,CA,(450) 4492929,45.5753955138133,-73.4054220868179,,,0
CHAUSSURES YELLOW,711292290,300 BOULEVARD ARTHUR-SAUVE,,SAINT-EUSTACHE,QC,J7R 2J1,CA,(450) 9742074,45.56094,-73.8989,,,0
SEARS,711293383,379 BOUL. ARTHUR-SAUVE,,ST. EUSTACHE,QC,J7P 2B0,CA,,45.562721,-73.9013579,,,0
CHAUSSURES RUBINO,711292176,1400 BOULEVARD ST-JEAN-BAPTISTE,,P.A.T.,QC,H1B 4A5,CA,(514) 6452793,45.64163,-73.50045,,,0
GLOBO,711292485,401 BOULEVARD LABELLE,,ROSEMERE,QC,J7A 3T2,CA,(450) 4373804,45.6306724,-73.8192093,,,0
SEARS,711293385,401 BOULEVARD LABELLE,PLACE ROSEMERE,ROSEMERE,QC,J7A 3T2,CA,,45.6306724,-73.8192093,,,0
BROWNS SHOE SHOP,711292090,TI11 - 401 BOULEVARD LABELLE,,ROSEMÈRE,QC,J7A 3T2,CA,(450) 4302748,45.63291,-73.81701,,,0
CHAUSSURES YELLOW,711292296,390 BOULEVARD LABELLE,,ROSEMERE,QC,J7A 3R8,CA,(450) 9791428,45.6338728,-73.8176214,,,0
MARK'S WORK WEARHOUSE,711292961,3500 Boul du Tricentenaire,,Montreal,QC,H1B 0A3,CA,(514) 6459882,45.6523624,-73.5132753,,,0
CHAUSSURES YELLOW,711292294,3443 RUE ROBERT-CHEVALIER,,MONTREAL,QC,H1A 3R7,CA,(514) 6420958,45.6556254545455,-73.5105160606061,,,0
MARK'S WORK WEARHOUSE,711292939,3130 Avenue des Grandes Tourelles,,Boisbriand,QC,J7H 0A2,CA,(450) 4204728,45.6269252229293,-73.8490194125982,,,0
MARK'S WORK WEARHOUSE,711293114,620 Boul Arthur-Sauve,,Saint-Eustache,QC,J7R 5A8,CA,(450) 9741822,45.57341,-73.91382,,,0
MAGASIN LATULIPPE,711292652,1228 RUE DE LA CONCORDE,,CARREFOUR ST-ROMUALD,QC,G6W 0M7,CA,(418) 8340024,46.72909,-71.27,,,0
SEARS,711293366,2700 BOULEVARD LAURIER,PLACE LAURIER,SAINTE. FOY,QC,G1V 2L7,CA,,46.7695933333333,-71.2839433333333,,,0
BROWNS SHOE SHOP,711292040,2700 BOULEVARD LAURIER,,QUÉBEC,QC,G1V 2L8,CA,(418) 6511496,46.7695933333333,-71.2839433333333,,,0
GLOBO,711292483,2700 BOULEVARD LAURIER,,STE-FOY,QC,G1V 2L8,CA,(418) 6513553,46.7700072,-71.2846445,,,0
CHAUSSURES YELLOW,711292242,0701 - 2700 BOULEVARD LAURIER,,QUEBEC,QC,G1V 2L8,CA,(418) 6512949,46.7700072,-71.2846445,,,0
BROWNS SHOE SHOP,711292066,5401 BOULEVARD DES GALERIES,,QUÉBEC,QC,G1V 2L1,CA,,46.77143,-71.28038,,,0
GLOBO,711292482,1497 RUE JULES VERNE,,STE-FOY,QC,G2G 2R8,CA,(418) 8618956,46.7810801839952,-71.3454242621293,,,0
MARK'S WORK WEARHOUSE,711292768,1479 Rue Jules-Verne,,Quebec,QC,G2G 2R8,CA,(418) 8619444,46.7820047973592,-71.3450448400204,,,0
CHAUSSURES YELLOW,711292323,7025A BOULEVARD WILFRID-HAMEL,,QUEBEC,QC,G2G 1B6,CA,(418) 8718970,46.787702,-71.356173,,,0
LINDE CANADA LIMITED,711292597,4141 BOULEVARD DE LA RIVE-SUD,,LEVIS,QC,G6W 6M9,CA,(418) 8376317,46.7778633,-71.1954231,,,0
CORDONNERIE OZ CHAUSSURES,711292372,106 RUE ABERDEEN,,QUEBEC CITY,QC,G1R 2C8,CA,(418) 6489126,46.8030822222222,-71.2252694444445,,,0
MAGASIN LATULIPPE,711292654,637 RUE SAINT VALLIER OUEST,,QUEBEC,QC,G1N 1C6,CA,(418) 5290024,46.8099379,-71.2447496,,,0
MARK'S WORK WEARHOUSE,711293205,98A Boul President-Kennedy,,Levis,QC,G6V 6C9,CA,(418) 8353611,46.7905039,-71.1718507,,,0
CHAUSSURES RUBINO,711292207,44 BOULEVARD PRESIDENT-KENNEDY,,LEVIS,QC,G6V 6C5,CA,(418) 8370990,46.7958734,-71.1799367,,,0
CHAUSSURES YELLOW,711292338,81 ROUTE DU PRESIDENT-KENNEDY,,LEVIS,QC,G6V 6C8,CA,(418) 8336872,46.7913070509527,-71.1706691925776,,,0
CHAUSSURES YELLOW,711292277,1920 RUE MONSEIGNEUR-PLESSIS,,QUEBEC,QC,G1M 1A3,CA,(418) 5224830,46.8193794,-71.2505507,,,0
LINDE CANADA LIMITED,711292599,850 FERNAND-DUFOUR,,QUEBEC CITY,QC,G1M 3B1,CA,(418) 7803838,46.8222751515152,-71.2806324242424,,,0
MARK'S WORK WEARHOUSE,711293087,550 Boul Wilfrid-Hamel,,Quebec,QC,G1M 2S6,CA,(418) 5239898,46.8208806,-71.2521854,,,0
CHAUSSURES FILLION,711292134,600 ST JOSEPH STREET,,QUEBEC,QC,G1K 3B9,CA,(418) 5247223,46.81506,-71.22181,,,0
CHAUSSURES RUBINO,711292209,455 BOULEVARD SOUMANDE,,VANIER,QC,G1M 2X6,CA,(418) 5273960,46.8216973,-71.255459,,,0
SEARS,711293400,500 BOULEVARD WILFRID HAMEL,PLACE FLEUR DE LYS,QUEBEC CITY,QC,G1M 2S5,CA,,46.8216416,-71.2499289,,,0
SEARS,711293327,1200 BOUL. ALPHONSE-DESJARDINS,LES GALERIES CHAGNON,LEVIS,QC,G6V 6Y8,CA,,46.7963976,-71.1711047,,,0
CHAUSSURES FILLION,711292130,38 COTE DE LA FABRIQUE,,QUEBEC,QC,G1R 3V7,CA,(418) 6940001,46.8144802,-71.2079049,,,0
CHAUSSURES JEAN-PAUL FORTIN,711292154,2050 DE CELLES,,QUEBEC CITY,QC,G2C 1X8,CA,(418) 8476116,46.8282,-71.3117539,,,0
JP FORTIN,711292557,2050 DE CELLES,,QUEBEC,QC,G2C 1X8,CA,(418) 8455497,46.8282,-71.3117539,,,0
GLOBO,711292479,1100 RUE BOUVIER,,QUEBEC,QC,G2K 1L4,CA,(418) 6224562,46.82928,-71.28563,,,0
CHAUSSURES YELLOW,711292248,1040 RUE BOUVIER,,QUEBEC,QC,G2K 1L9,CA,(418) 6230975,46.8311406584743,-71.2815368243298,,,0
CHAUSSURES TROTTE-MENU,711292241,5401 BLVD DES GALERIES,,QUEBEC CITY,QC,G2K 1N4,CA,(418) 6237474,46.8311690674872,-71.2953653039627,,,0
SEARS,711293411,5401 BOULEVARD DES GALERIES,LA CAPITALE,QUEBEC CITY,QC,G2K 1N4,CA,,46.8311690674872,-71.2953653039627,,,0
CHAUSSURES YELLOW,711292311,4605 BOULEVARD DE L'AUVERGNE,,QUEBEC,QC,G2C 1H7,CA,(418) 8456436,46.8249816678202,-71.3580041903141,,,0
CHAUSSURES FILLION,711292147,9030 BOULEVARD LA ORMIERE,,QUEBEC,QC,G2B 3K2,CA,(418) 8422225,46.832433,-71.3500377,,,0
CHAUSSURES YELLOW,711292283,2485 BOULEVARD SAINTE-ANNE,,QUEBEC,QC,G1J 1Y4,CA,(418) 6638796,46.8446488,-71.2170718,,,0
CHAUSSURES YELLOW,711292293,3333 RUE DU CARREFOUR,,QUEBEC,QC,G1C 5R9,CA,(418) 6619775,46.85879,-71.21703,,,0
CHAUSSURES YELLOW,711292340,8500 BOULEVARD HENRI-BOURASSA,,QUEBEC,QC,G1G 5X1,CA,(418) 6275761,46.8666916,-71.2699484,,,0
CHAUSSURES RUBINO,711292201,2817 AVENUE ST-DAVID,,BEAUPORT,QC,G1C 0J3,CA,(418) 6668003,46.8609112997331,-71.2117017710467,,,0
SEARS,711293441,CORBIEIL #37 247 RUE ANTOINE FORTIER,,BEAUPORT,QC,G1C 0G6,CA,,46.8681528187919,-71.2062830201342,,,0
MARK'S WORK WEARHOUSE,711293135,709 Rue Clemenceau,,Quebec City,QC,G1C 7T9,CA,(418) 6616649,46.8726384694786,-71.2009435927913,,,0
COX TARP RITE INC,711292381,327 LOCKHART MILL RD,,JACKSONVILLE,NB,E7M 3S5,CA,(506) 3288277,46.1881100095474,-67.6054579439885,,,0
MARK'S WORK WEARHOUSE,711292953,337 Connell Street,,Woodstock,NB,E7M 5G5,CA,(506) 3282799,46.1662108586082,-67.5959189621066,,,0
CURRIE'S ACE HARDWARE,711292388,213 HOULTON RD,,WOODSTOCK,NB,E7M 4L7,CA,(506) 3288788,46.1493633333333,-67.60219,,,0
KING ST SHOES LTD,711292562,119 KING Street,PO BOX 9055,WOODSTOCK,NB,E7M 2Y4,CA,(506) 3288349,46.1406664424186,-67.583853404966,,,0
BROWNS SHOE SHOP,711292042,2901 BAYVIEW AVENUE,,NORTH YORK,ON,M2K 1E6,CA,(416) 2292578,43.76905,-79.3886,,,0
THE SHOE COMPANY,711293635,3110 BATHURST STREET,,NORTH YORK,ON,M6A 1A1,CA,,43.71993,-79.4299116666667,,,0
BROWNS SHOE SHOP,711292048,3401 DUFFERIN STREET,,TORONTO,ON,M6A 2T9,CA,(416) 7870313,43.72466,-79.45711,,,0
LITTLE BURGUNDY,711292622,3401 DUFFERIN STREET,,TORONTO,ON,M6A 2T9,CA,(416) 7830625,43.72466,-79.45711,,,0
CIRCLE SHOES,711292351,2597 YONGE ST,,TORONTO,ON,M4P 2J1,CA,(416) 4894379,43.71453,-79.40002,,,0
MARK'S WORK WEARHOUSE,711292675,1019 Sheppard Avenue E,,North York,ON,M2K 1C2,CA,(416) 2505327,43.770084,-79.3721904,,,0
SHOE CLUB,711293449,1170 ST CLAIRE AVENUE W,,TORONTO,ON,M6E 1B5,CA,(416) 6588309,43.71085,-79.411318,,,0
OREOL SHOES & MEDICAL SUPPLIES,711293262,1126 FINCH AVENUE W   #5,,NORTH YORK,ON,M3J 3J6,CA,(416) 6389805,43.7680416,-79.4760726,,,0
THE SHOE COMPANY,711293623,2355 YONGE STREET,,TORONTO,ON,M4P 2C8,CA,,43.7089744444444,-79.3988088888889,,,0
LITTLE BURGUNDY,711292611,1800 SHEPPARD AVE E,,WILLOWDALE,ON,M2J 5A7,CA,(416) 4936799,43.7719875,-79.3616812,,,0
SHOE CLUB,711293451,1295 FINCH AVENUE W,,NORTH YORK,ON,M3J 2G5,CA,(416) 6308238,43.7639268,-79.4889351,,,0
BROWNS SHOE SHOP,711292085,J5 - 20 KARL FRASER ROAD,,TORONTO,ON,M3C 0E8,CA,(416) 3840971,43.7353649997126,-79.3447842423546,,,0
LITTLE BURGUNDY,711292630,6 KARL FRASER ROAD,,TORONTO,ON,M3C 0E9,CA,(416) 7830625,43.7346666666667,-79.3445666666667,,,0
SEARS,711293353,1800 SHEPPARD AVE E,FAIRVIEW MALL,TORONTO,ON,M2J 5A7,CA,,43.77939,-79.34734,,,0
BROWNS SHOE SHOP,711292031,1800 SHEPPARD AVENUE E,,TORONTO,ON,M2J 5A7,CA,(416) 4923993,43.7777578,-79.3444513,,,0
BROWNS SHOE SHOP,711292019,1 PROMENADE CIRCLE,,THORNHILL,ON,L4J 4P8,CA,(905) 7641444,43.8092847218672,-79.4530416914421,,,0
SHOE WAREHOUSE,711293462,1054  CENTER STREET,,THORNHILL,ON,L4J 8E5,CA,,43.8089585095302,-79.4592713665594,,,0
THE SHOE COMPANY,711293633,31 DISERA DRIVE,,THORNHILL,ON,L4J 0A7,CA,,43.811347160547,-79.4540630681279,,,0
JERRY'S WESTERN & FASHION CENTRE,711292548,60 BEVERLY HILLS DRIVE,,NORTH YORK,ON,M3L 1A1,CA,(416) 2447721,43.7177843258828,-79.5137128824323,,,0
BIOTECH FOOT INC.,711291994,1448 LAWRENCE AVE E  #20B,,TORONTO,ON,M4A 2V6,CA,(416) 7501232,43.7421288,-79.3145902,,,0
CONCORD HARDWARE,711292363,374 BOWES RD,,CONCORD,ON,L4K 1K1,CA,(905) 6699914,43.8123613541416,-79.4942693226274,,,0
BROWNS SHOE SHOP,711292026,110 BLOOR STREET W,,TORONTO,ON,M5S 2W7,CA,(416) 9201032,43.66926,-79.39147,,,0
THE SHOE COMPANY,711293695,750 YONGE STREET,,TORONTO,ON,M4Y 2B6,CA,,43.6692716666667,-79.386395,,,0
THE SHOE COMPANY,711293599,1980 ST CLAIR AVENUE W,,TORONTO,ON,M6N 0A3,CA,,43.6728592,-79.4708129,,,0
MARK'S WORK WEARHOUSE,711293099,590 Keele Street,,Toronto,ON,M6N 3E2,CA,(416) 7664883,43.67134,-79.4671,,,0
MISTER SAFETY SHOES INC.,711293246,6-2300 FINCH AVENUE W,(AT WESTON RD),NORTH YORK,ON,M9M 2Y3,CA,(416) 7463000,43.7530513,-79.5416164,,,0
CONCORD HARDWARE,711292364,"7310 WOODBINE AVENUE, UNIT #5",,MARKHAM,ON,L3R 1A4,CA,(905) 4799844,43.8216314285714,-79.3506714285714,,,0
SHOE CLUB,711293457,2900 WARDEN AVENUE,,TORONTO,ON,M1W 2S8,CA,(416) 7562439,43.7985022594761,-79.316550125553,,,0
SEARS,711293392,45 RED MAPLE ROAD,,RICHMOND HILL,ON,L4B 4M6,CA,,43.8410902360863,-79.4226223429902,,,0
MARK'S WORK WEARHOUSE,711293022,45 Red Maple Road,,Richmond Hill,ON,L4B 4M6,CA,(905) 8867899,43.8410902360863,-79.4226223429902,,,0
D&M FOOTWEAR,711292390,566 YONGE STREET,,TORONTO,ON,M4Y 1Y8,CA,(416) 9671711,43.6648657894737,-79.3845478947368,,,0
MARK'S WORK WEARHOUSE,711292894,2625D Weston Road,,North York,ON,M9N 3W2,CA,(416) 2413571,43.7117642857143,-79.5353742857143,,,0
SHOE CLUB,711293448,1 - 70 EGLINTON SQUARE,,SCARBOROUGH,ON,M1L 2K1,CA,(416) 7507599,43.72336,-79.30213,,,0
WORK AUTHORITY,711293823,1448 LAWRENCE AVENUE E,VICTORIA TERRACE MALL,NORTH YORK,ON,M4A 2V6,CA,(416) 7552583,43.72168,-79.30141,,,0
STEP INTO COMFORT,711293551,2055 LAWRENCE AVENUE E,,SCARBOROUGH,ON,M1R 2Z4,CA,(416) 7577837,43.7453645,-79.294744,,,0
MARK'S WORK WEARHOUSE,711293184,900 Dufferin Street,,Toronto,ON,M6H 4B1,CA,(416) 5357997,43.65703,-79.43426,,,0
MARK'S WORK WEARHOUSE,711292824,1900 Eglinton Avenue E,,Scarborough,ON,M1L 2L9,CA,(416) 7594124,43.7280502,-79.2941435,,,0
THE SHOE COMPANY,711293697,7575 WESTON ROAD,,WOODBRIDGE,ON,L4L 9K5,CA,,43.7874503904321,-79.5470802499525,,,0
HARRY DAVID LTD,711292525,220 AUGUSTA AVE,,TORONTO,ON,M5T 2L6,CA,(416) 5939719,43.6549492307692,-79.4021807692308,,,0
DSW,711292402,1920 EGLINTON AVENUE E,,SCARBOROUGH,ON,M1L 2L9,CA,,43.7276023,-79.2905579,,,0
SHOE CLUB,711293459,3850 SHEPPARD AVENUE W,,NORTH YORK,ON,M1T 3L4,CA,(416) 3215514,43.7843518,-79.2921897,,,0
MARK'S WORK WEARHOUSE,711293121,65 Dundas Street W,,Toronto,ON,M5G 2C3,CA,(416) 5060430,43.655842,-79.383124,,,0
ORTHO PLUS INC,711293263,3B - 5324 DUNDAS STREET W,,TORONTO,ON,M9B 1B4,CA,(416) 2331790,43.656275,-79.3811125,,,0
WORK AUTHORITY,711293855,7887 WESTON ROAD,HIGHWAY 7 & WESTON ROAD,WOODBRIDGE,ON,L4L 1A6,CA,(905) 8564706,43.7927643335237,-79.5483086667081,,,0
WORK AUTHORITY,711293856,809 GERRARD STREET E,,TORONTO,ON,M4M 1Y8,CA,(416) 4699874,43.66708,-79.34518,,,0
THE SHOE COMPANY,711293718,822 WARDEN AVENUE,,SCARBOROUGH,ON,M1L 4W1,CA,,43.72548,-79.28665,,,0
WORK N' WEAR,711293873,1944 DANFORTH AVENUE,,TORONTO,ON,M4C 1J4,CA,(416) 4292067,43.6850811764706,-79.3155352941177,,,0
LITTLE BURGUNDY,711292615,220 YONGE STREET,,TORONTO,ON,M5B 2H1,CA,(416) 2600497,43.65363,-79.37982,,,0
BROWNS SHOE SHOP,711292035,220 YONGE STREET,,TORONTO,ON,M5B 2H1,CA,(416) 9799270,43.65363,-79.37982,,,0
STEP BY STEP PROFESSIONAL FAMILY FOOT CARE,711293550,27 QUEEN STREET E,,TORONTO,ON,M5C 2M6,CA,(416) 2144697,43.652706875,-79.377884375,,,0
LITTLE BURGUNDY,711292623,351 QUEEN STREET W,,TORONTO,ON,M5V 2A4,CA,(416) 2603448,43.6495335294118,-79.3927423529412,,,0
MARK'S WORK WEARHOUSE,711292841,200 Windflower Gate,,Woodbridge,ON,L4L 9L3,CA,(905) 8503502,43.78947,-79.55708,,,0
C SQUARED,711292097,693 QUEEEN STREET WEST,,TORONTO,ON,M6J 1E6,CA,(647) 3501038,43.646943125,-79.405284375,,,0
MISTER SAFETY SHOES INC.,711293237,26 WILLIAM KITCHEN ROAD,,SCARBOROUGH,ON,M1P 5B7,CA,(416) 3324977,43.771728856694,-79.2792288801876,,,0
HEEL BOY,711292530,773 QUEEN STREET WEST,,TORONTO,ON,M6J 1G1,CA,(416) 3624335,43.6464033333333,-79.4079833333333,,,0
CONCORD HARDWARE,711292365,"9094 LESLIE ST, UNIT #6",,RICHMOND HILL,ON,L4B 3L9,CA,(905) 7317944,43.8540615148901,-79.3847540425522,,,0
MISTER SAFETY SHOES INC.,711293245,443 ADELAIDE STREET W,,TORONTO,ON,M5V 1S9,CA,(416) 3680770,43.64607,-79.39899,,,0
THE SHOE COMPANY,711293659,40 KING STREET E,,TORONTO,ON,M5H 3Y2,CA,,43.6494478571429,-79.3764321428571,,,0
GRAVITY POPE,711292512,1010 QUEEN STREET W,,TORONTO,ON,M6J 1H6,CA,(647) 7485155,43.64418,-79.41884,,,0
DSW,711292397,1 BASS PRO MILLS DRIVE,,VAUGHAN,ON,L4K 5W4,CA,,43.82275,-79.53323,,,0
LITTLE BURGUNDY,711292603,1 BASS PRO MILLS DRIVE,,VAUGHAN,ON,L4K 5W4,CA,(905) 6603533,43.82275,-79.53323,,,0
BROWNS SHOE SHOP,711292017,1 BASS PRO MILLS DRIVE,,VAUGHAN,ON,L4K 5W4,CA,(905) 7600307,43.82275,-79.53323,,,0
THE SHOE COMPANY,711293566,1 BASS PRO MILLS DRIVE,,VAUGHAN,ON,L4K 5W4,CA,,43.82275,-79.53323,,,0
TROVE,711293734,2264 BLOOR STREET W,,TORONTO,ON,M6S 1N9,CA,(416) 7661258,43.650745,-79.4780275,,,0
IMELDA SHOES,711292538,123 RONCESVALLES AVENUE,,TORONTO,ON,M6R 2K9,CA,(647) 3441006,43.6427557142857,-79.447665,,,0
HEEL BOY DISTILLERY,711292531,49 TANK HOUSE LANE,,TORONTO,ON,M5A 3C4,CA,(416) 3632794,43.65051,-79.35866,,,0
THE SHOE COMPANY,711293640,3175 HIGHWAY 7,,MAKHAM,ON,L3R 0J5,CA,,43.8511025,-79.3522558333333,,,0
SHOE CLUB,711293458,3003 DANFORTH AVENUE,,TORONTO,ON,M4C 1M9,CA,(416) 6949944,43.69088,-79.2898,,,0
MARK'S WORK WEARHOUSE,711292792,16B Leslie Street,,Toronto,ON,M4M 3C1,CA,(416) 4610337,43.66017,-79.32888,,,0
CORSO SHOES LTD,711292378,1942 QUEEN ST.E.,,TORONTO,ON,M4L 1H6,CA,(416) 6931987,43.6695541,-79.3030819,,,0
LITTLE BURGUNDY,711292619,300 BOROUGH DRIVE,,SCARBOROUGH,ON,M1P 4P5,CA,(416) 2905138,43.775466,-79.25395,,,0
SEARS,711293370,300 BOROUGH DRIVE UNIT 1,SCARBOROUGH TOWN CENTRE,SCARBOROUGH,ON,M1P 4P5,CA,,43.775466,-79.25395,,,0
BROWNS SHOE SHOP,711292043,300 BOROUGH DRIVE,,SCARBOROUGH,ON,M1P 4P5,CA,(416) 2905158,43.775466,-79.25395,,,0
MARK'S WORK WEARHOUSE,711292825,1900 McCowan Road,,Scarborough,ON,M1S 4K1,CA,(416) 4127854,43.79163,-79.25967,,,0
SEARS,711293401,500 REXDALE BLVD,WOODBINE CENTRE,ETOBICOKE,ON,M9W 6K5,CA,,43.71758,-79.59669,,,0
MARK'S WORK WEARHOUSE,711293086,55 Woodbine Downs Blvd,,Etobicoke,ON,M9W 6N5,CA,(416) 6740648,43.7386,-79.60756,,,0
ADVANCE SAFETY WORLD LTD,711291936,6797 STEELES AVE W,,ETOBICOKE,ON,M9V 4R9,CA,(416) 6750255,43.7561385,-79.6093223,,,0
WORK N' WEAR,711293874,2880 KINGSTON ROAD,,SCARBOROUGH,ON,M1M 1N4,CA,(416) 2679675,43.722595,-79.2354766666667,,,0
MARK'S WORK WEARHOUSE,711292957,3434 Lawrence Avenue E,,Scarborough,ON,M1H 1A9,CA,(416) 4394383,43.7601748,-79.2284333,,,0
KISS MY BABY LTD,711292563,84 MURISON DRIVE,,MARKHAM,ON,L6C 0N8,CA,,43.8916803045459,-79.3756434965249,,,0
LITTLE BURGUNDY,711292626,5000 HIGHWAY 7 E,,MARKHAM,ON,L3R 4M9,CA,(905) 9404423,43.8655657142857,-79.2913528571429,,,0
BROWNS SHOE SHOP,711292054,5000 HIGHWAY 7 E,,MARKHAM,ON,L3R 4M9,CA,(905) 9449564,43.8655657142857,-79.2913528571429,,,0
MARK'S WORK WEARHOUSE,711292691,10775 Leslie Street,,Richmond Hill,ON,L4S 0B2,CA,(905) 8843939,43.899212873846,-79.3959772615834,,,0
SHOE CLUB,711293450,1255 THE QUEENSWAY,,ETOBICOKE,ON,M8Z 1S1,CA,(416) 2514577,43.62122,-79.52552,,,0
THE SHOE COMPANY,711293601,20 JOHN BIRCHALL ROAD,,RICHMOND HILL,ON,L4S 0B2,CA,,43.9001922247665,-79.3925359671425,,,0
SEARS,711293382,3660 KINGSTON ROAD,,SCARBOROUGH,ON,M1M 1R7,CA,,43.742872,-79.2127156,,,0
THE SHOE COMPANY,711293668,5000 HIGHWAY #7 E,,MARKHAM,ON,L3R 4M9,CA,,43.8683035,-79.2884833,,,0
SHOE CLUB,711293454,250 EAST MALL,,ETOBICOKE,ON,M9B 3Y8,CA,(416) 2360419,43.6312903,-79.555345,,,0
MARK'S WORK WEARHOUSE,711293151,7700 Markham Road,,Markham,ON,L3S 4S1,CA,(905) 2016330,43.85381,-79.25511,,,0
DSW,711292400,170 NORTH QUEEN STREET,,ETOBICOKE,ON,M9C 1A8,CA,,43.6188407645393,-79.5564200007262,,,0
MARK'S WORK WEARHOUSE,711292788,167 North Queen Street,,Etobicoke,ON,M9C 1A7,CA,(416) 6262729,43.61819,-79.55765,,,0
THE SHOE COMPANY,711293586,171 NORTH QUEEN STREET,,ETOBICOKE,ON,M9C 1A7,CA,,43.6174902486829,-79.5575138650532,,,0
MARK'S WORK WEARHOUSE,711292890,255 Morningside Avenue,,Scarborough,ON,M1E 3E6,CA,(416) 2814114,43.76946,-79.18641,,,0
LITTLE BURGUNDY,711292617,25 THE WEST MALL,,ETOBICOKE,ON,M9C 1B8,CA,(416) 6951983,43.6097237044592,-79.5608082726123,,,0
BROWNS SHOE SHOP,711292038,25 THE WEST MALL,,TORONTO,ON,M9C 1B8,CA,(416) 6201910,43.6097237044592,-79.5608082726123,,,0
DEJAVU FOOTWEAR,711292393,4141 DIXIE ROAD,,MISSISSAUGA,ON,L4W 1V5,CA,(416) 5669890,43.6254612467473,-79.6065350291245,,,0
MISTER SAFETY SHOES INC.,711293230,1250 EGLINTON AVENUE E,,MISSISSAUGA,ON,L4W 1K8,CA,(905) 6243700,43.6325399,-79.6233143,,,0
MARK'S WORK WEARHOUSE,711292719,1180 Dundas Street E,,Mississauga,ON,L4Y 2C1,CA,(905) 2756760,43.604945,-79.58876,,,0
TOTAL BUILDERS HARDWARE,711293728,5015 MAINGATE DRIVE,,MISSISSAUGA,ON,L4W 1G4,CA,(905) 6298005,43.630236571783,-79.6272706648834,,,0
MISTER SAFETY SHOES INC.,711293235,2 Melanie Drive,,BRAMPTON,ON,L6T 4K9,CA,(905) 5950220,43.71056,-79.68411,,,0
MARK'S WORK WEARHOUSE,711292664,10 Coventry Road,,Brampton,ON,L6T 5P9,CA,(905) 7932645,43.7387633333333,-79.6953625,,,0
MARK'S WORK WEARHOUSE,711293049,5 Ward Road,,Brampton,ON,L6S 0B5,CA,,43.7526947366738,-79.7025100299291,,,0
BAR-BEN HARDWARD INC,711291969,1115 DERRY ROAD E,,MISSISSAUGA,ON,L5T 1P3,CA,(905) 6708800,43.66792775,-79.682170125,,,0
FOOT CLINIQUE,711292458,27-377 BURHAMTHORPE RD EAST,,MISSISSAUGA,ON,L5A 3Y1,CA,(289) 2327985,43.6028042,-79.6266236,,,0
SEARS,711293342,1500 FISHER STREET,NORTHGATE SQUARE,NORTH BAY,ON,P1B 2H3,CA,,46.31296,-79.44285,,,0
MARK'S WORK WEARHOUSE,711293176,850 McKeown Avenue,,North Bay,ON,P1B 8M1,CA,(705) 4768052,46.3325415130661,-79.4735143493911,,,0
SPI SECURITE JONQUIERE,711293542,755 WALLACE ROAD,,NORTH BAY,ON,P1A 0E7,CA,(705) 4741933,46.31545,-79.4239844444444,,,0
THE SHOE COMPANY,711293625,261055 CROSSIRON BOULEVARD,,ROCKY VIEW,AB,T4A 0G3,CA,,51.2030610279929,-113.989596520742,,,0
DSW,711292408,261055 CROSSIRON BOULEVARD,,ROCKY VIEW,AB,T4A 0G3,CA,,51.2030610279929,-113.989596520742,,,0
BROWNS SHOE SHOP,711292039,261055 CROSSIRON BOULEVARD,,ROCKY VIEW,AB,T4A OG3,CA,(403) 2744442,51.2030610279929,-113.989596520742,,,0
SHOE WAREHOUSE,711293480,261055 CROSSIRON BOULEVARD,,ROCKY VIEW,AB,T4A 0G3,CA,,51.2030610279929,-113.989596520742,,,0
LITTLE BURGUNDY,711292618,261005 CROSSIRON BOULEVARD,,ROCKY VIEW,AB,T4A 0G3,CA,(403) 2748795,51.2006359673886,-113.990659513394,,,0
MARK'S WORK WEARHOUSE,711292850,202 Veterans Blvd NE,,Airdrie,AB,T4B 3P2,CA,(403) 9487768,51.3000706666667,-114.011299111111,,,0
MARK'S WORK WEARHOUSE,711292847,20-145 Easthills Boulevard SE,,Calgary,AB,T2A 6Z8,CA,(403) 2723556,51.0404159,-113.912921,,,0
MARK'S WORK WEARHOUSE,711292739,1300 Saint PeterAvenue,,Bathurst,NB,E2A 3A6,CA,(506) 5462283,47.640127,-65.6781879,,,0
SEARS,711293333,1300 ST PETER AVENUE,,BATHURST,NB,E2A 1M5,CA,,47.6401565,-65.6780622,,,0
LINGERIE RSB ENG,711292601,443 RUE PRINCIPALE,,PETIT-ROCHER,NB,E8J 1L9,CA,(506) 7832250,47.7942987384597,-65.7241319846142,,,0
SOURCE ATLANTIC,711293516,845 RIORDON DRIVE,,BATHURST,NB,E2A 4W7,CA,(506) 5484411,47.6035796744,-65.6274066287803,,,0
BYRNES SHOE STORES,711292096,83 MAIN STREET,,STEPHENVILLE,NL,A2N 1H9,CA,(709) 6432991,48.5480025,-58.5807875,,,0
LEATHER WORKS PLUS,711292576,149 LORNE STREET,,SUDBURY,ON,P3C 4P4,CA,(705) 6745757,46.4896125786408,-81.0031859294604,,,0
CITY SURPLUS STORE,711292352,685 Notre Dame Ave,,SUDBURY,ON,P3A 2T2,CA,(705) 6749675,46.5081230069866,-80.9866945071364,,,0
SPI SECURITE JONQUIERE,711293518,1150 LORNE STREET,,SUDBURY,ON,P3C 4S9,CA,(705) 6746055,46.4713329496321,-81.0314693285618,,,0
MARK'S WORK WEARHOUSE,711292766,1425 Kingsway,,Sudbury,ON,P3B 0A2,CA,(705) 5604600,46.5050268639053,-80.9460298816568,,,0
THE SHOE COMPANY,711293577,1425 KINGSWAY ROAD,,SUDBURY,ON,P3A 4R7,CA,,46.5050268639053,-80.9460298816568,,,0
SOUCIE SALO SAFETY LTD,711293503,1300 LORNE STREET,,SUDBURY,ON,P3C 5N1,CA,(705) 6748092,46.4707117387688,-81.0352056821895,,,0
TSC STORES,711293759,1933 REGENT STREET,,SUDBURY,ON,P3E 5R2,CA,,46.4510312859701,-81.0016696544131,,,0
MARK'S WORK WEARHOUSE,711292875,2408 Long Lake Road,,Sudbury,ON,P3E 5H5,CA,(705) 5227855,46.441927294478,-81.0054112157463,,,0
SOUCIE SALO SAFETY LTD,711293504,2914 HIGHWAY 69 N,,VAL CARON,ON,P3N 1R6,CA,(705) 8975228,46.6075508,-81.0068239,,,0
MARK'S WORK WEARHOUSE,711292969,3595 Highway 144,,Chelmsford,ON,P0M 1L0,CA,(705) 8558989,46.56886,-81.19186,,,0
MARK'S WORK WEARHOUSE,711293075,5206 Highway 69 Road N,,Hanmer,ON,P3P 1Z3,CA,(705) 9699294,46.65401,-80.984995,,,0
,,68 Denton Ave,,Toronto,ON,M1L,CA,,43.69417,-79.28299,,,0
,,2 Denton Ave,,Toronto,ON,M1L,CA,,43.69269,-79.28981,,,0
CARTIER CO-OP LTD,711292103,25 CARTIER BOULEVARD UNIT 25,,RICHIBUCTO,NB,E4W 3W7,CA,(506) 5234461,46.6732919182572,-64.8714394493137,,,0
MARK'S WORK WEARHOUSE,711293196,9550 86 Avenue,,Fort Saskatchewan,AB,T8L 4P4,CA,(780) 9980360,53.6914872738632,-113.238854288689,,,0
THE SHOE COMPANY,711293579,15712-37 STREET,,EDMONTON,AB,T5Y 0S5,CA,,53.62498,-113.40167,,,0
THE SHOE COMPANY,711293655,360-5000 EMERALD DRIVE,,SHERWOOD PARK,AB,T8H 0P5,CA,,53.56683,-113.27716,,,0
MARK'S WORK WEARHOUSE,711293011,4240 137 Avenue NW,,Edmonton,AB,T5Y 2W7,CA,(780) 4732053,53.5986457,-113.4079334,,,0
JOBSITE WORKWEAR,711292550,13723 MANNING DRIVE NW,,EDMONTON,AB,T5Y 3B2,CA,(780) 4737575,53.5991883658105,-113.419546745937,,,0
MARK'S WORK WEARHOUSE,711292956,342 390 Baseline Road,,Sherwood Park,AB,T8H 1X1,CA,(780) 4171194,53.54128,-113.305714826615,,,0
SEARS,711293432,8770-170TH STREET,WEST EDMONTON MALL,EDMONTON,AB,T5Z 2Y7,CA,,53.6313592,-113.4772549,,,0
DSW,711292404,2020 SHERWOOD DRIVE,,SHERWOOD PARK,AB,T8A 3H9,CA,,53.53035,-113.29555,,,0
MARK'S WORK WEARHOUSE,711293204,9857 50 Street NW,,Edmonton,AB,T6A 3X5,CA,(780) 4901256,53.53865,-113.41846,,,0
MARK'S WORK WEARHOUSE,711292730,12222 137 Avenue,,Edmonton,AB,T5L 4X5,CA,(780) 4786681,53.6007212,-113.5330207,,,0
,,,,Sainte-Foy,QC,G1V3E6,CA,,46.783333,-71.3,,,0
,,,,St Guy,QC,G0K1W0,CA,,48.04648,-68.80397,,,0
,,,,St Pie,QC,J0H1J0,CA,,45.50498,-72.9065,,,0
,,,,Saint John,NB,E2L1A1,CA,,45.27343,-66.06415,,,0
,,,,St Ives,BC,V0E1M9,CA,,50.977351,-119.108481,,,0
,,,,St Leon,MB,R0G2E0,CA,,49.42277,-98.67806,,,0
,,,,St Malo,MB,R0A1T0,CA,,49.310233,-96.952499,,,0
,,,,St Almo,NB,E7G3N6,CA,,46.774452,-67.640064,,,0
,,,,Saint-Pons,NB,E1X1Y6,CA,,47.476984,-64.957597,,,0
,,,,Sainte-Rose,NB,E1X2X6,CA,,47.618736,-65.000167,,,0
,,,,Saint Anns,NS,B1X1T1,CA,,46.25,-60.616667,,,0
,,,,St Anns,ON,L0R1Y0,CA,,43.019718,-79.504992,,,0
,,,,Saint-Omer,QC,G0C2Z0,CA,,48.159881,-66.23883,,,0
,,,,St Paul,Ab,T0A3A3,CA,,53.99139,-111.28202,,,0
,,,,St Mary,Nb,E4S1X3,CA,,46.44273,-64.8874,,,0
,,,,St Paul,Nb,E1G3V1,CA,,46.31609,-64.99255,,,0
,,,,St Aime,QC,J0H1T0,CA,,45.93519,-72.92076,,,0
,,,,St Clet,QC,J0P1S0,CA,,45.3516,-74.22073,,,0
,,,,St Come,QC,J0K2B0,CA,,46.27071,-73.77173,,,0
,,,,St Eloi,QC,G0L2V0,CA,,48.02535,-69.20044,,,0
,,,,St Jean,QC,G0A3W0,CA,,46.92123,-70.8897,,,0
,,,,St Jude,QC,J0H1P0,CA,,45.77405,-72.98808,,,0
,,,,Ste Luce,QC,G0K1P0,CA,,48.52764,-68.34484,,,0
,,,,St Malo,QC,J0B2Y0,CA,,45.19886,-71.50044,,,0
,,,,St Noel,QC,G0J3A0,CA,,48.58474,-67.83823,,,0
,,,,St Omer,QC,G0R4R0,CA,,47.03543,-69.69002,,,0
,,,,St Ours,QC,J0G1P0,CA,,45.88632,-73.15102,,,0
,,,,St Paul,QC,J6E3H2,CA,,45.98504,-73.44556,,,0
,,,,St Remi,QC,J0L2L0,CA,,45.2587,-73.61402,,,0
,,,,St Rene,QC,G0M1Z0,CA,,46.01203,-70.61829,,,0
,,,,St Tite,QC,G0X3H0,CA,,46.73439,-72.56648,,,0
,,,,St Marks,MB,R0H1K0,CA,,50.012423,-98.319425,,,0
,,,,St Croix,NB,E6J1Z8,CA,,45.582767,-67.373244,,,0
,,,,Saint-Maure,NB,E8E1M4,CA,,47.945177,-66.479364,,,0
,,,,Saint-Simon,NB,E8P1Z2,CA,,47.737791,-64.850097,,,0
,,,,St Chads,NL,A0G3W0,CA,,48.586197,-54.078788,,,0
,,,,St Judes,NL,A8A3A1,CA,,48.987148,-57.72586,,,0
,,,,Ste Croix,NS,B0N2E0,CA,,44.908209,-64.044725,,,0
,,,,St. Pauls,ON,N0K1V0,CA,,43.253328,-81.098867,,,0
,,,,Sainte-Agnès,QC,J0S1L0,CA,,45.016667,-74.4,,,0
,,,,Saint-Bruno,QC,J3V3T6,CA,,45.528635,-73.34374,,,0
,,,,St Denis,SK,S0K3W0,CA,,52.291215,-106.005096,,,0
,,,,St Andre,Nb,E3Y2W1,CA,,47.10576,-67.75946,,,0
,,,,St David,Nb,E3L3W3,CA,,45.21705,-67.21625,,,0
,,,,St James,Nb,E5A0A3,CA,,45.32326,-67.30518,,,0
,,,,St Louis,NB,E4X0A2,CA,,46.75564,-65.00029,,,0
,,,,St Marys,NB,E6C1A6,CA,,46.14446,-66.61642,,,0
,,,,St John'S,Nl,A1C4K2,CA,,47.56076,-52.71225,,,0
,,,,St Lewis,Nl,A0K4W0,CA,,52.37449,-55.71557,,,0
,,,,St Mary'S,NL,A0B3B0,CA,,46.91233,-53.5756,,,0
,,,,St Pauls,Nl,A0K4Y0,CA,,49.85223,-57.80678,,,0
,,,,St Mary'S,Ns,B0H1M0,CA,,45.26347,-62.04414,,,0
,,,,St Clair,On,N0N1M0,CA,,42.84464,-82.46304,,,0
,,,,St Marys,ON,N4X1A1,CA,,43.25949,-81.14142,,,0
,,,,St Louis,PE,C0B1S0,CA,,46.88681,-64.14109,,,0
,,,,Ste Adele,QC,J8B1A3,CA,,45.95432,-74.13851,,,0
,,,,St Alban,QC,G0A3B0,CA,,46.71696,-72.07861,,,0
,,,,St Andre,QC,G0L2H0,CA,,47.67484,-69.72668,,,0
,,,,Ste Barbe,QC,J0S1P0,CA,,45.16218,-74.19727,,,0
,,,,St Bruno,QC,G0W2L0,CA,,48.47178,-71.67558,,,0
,,,,Ste Croix,QC,G0S2H0,CA,,46.63313,-71.6465,,,0
,,,,St David,QC,J0G1L0,CA,,45.95967,-72.83038,,,0
,,,,St Denis,QC,G0L4A0,CA,,47.49975,-69.93352,,,0
,,,,St Donat,QC,J0T2C0,CA,,46.34161,-74.22741,,,0
,,,,St Donat,QC,G0K1L0,CA,,48.49637,-68.24951,,,0
,,,,St Henri,QC,G0R3E0,CA,,46.69628,-71.07065,,,0
,,,,St Jules,QC,G0N1R0,CA,,46.22189,-70.94616,,,0
,,,,Ste Julie,QC,J3E0A2,CA,,45.58781,-73.3269,,,0
,,,,St Louis,QC,J0G1K0,CA,,45.85373,-72.97818,,,0
,,,,Ste Marie,QC,G6E1G9,CA,,46.46902,-71.03765,,,0
,,,,St Moise,QC,G0J3A0,CA,,48.54954,-67.85082,,,0
,,,,St Neree,QC,G0R3V0,CA,,46.72371,-70.71925,,,0
,,,,St Prime,QC,G8J1L2,CA,,48.59391,-72.33675,,,0
,,,,St Simon,QC,J0H1Y0,CA,,45.7215,-72.85423,,,0
,,,,St Simon,QC,G0L4C0,CA,,48.20748,-69.03651,,,0
,,,,St Sixte,QC,J8L4G4,CA,,45.69823,-75.20671,,,0
,,,,St Ubald,QC,G0A4L0,CA,,46.75494,-72.26873,,,0
,,,,St Ulric,QC,G0J3H0,CA,,48.78588,-67.69624,,,0
,,,,St Zenon,QC,J0K3N0,CA,,46.55873,-73.81534,,,0
,,,,St Louis,Sk,S0J2C0,CA,,52.92021,-105.81157,,,0
,,,,St Brides,AB,T0A2Y0,CA,,54.091446,-112.614286,,,0
,,,,Ste Agathe,MB,R0G1Y0,CA,,49.572259,-97.178344,,,0
,,,,St Joseph,MB,R0G2C0,CA,,49.12823,-97.334191,,,0
,,,,St Martin,MB,R0C2T0,CA,,51.681522,-98.57425,,,0
,,,,Saint-Arthur,NB,E3N5P6,CA,,47.930089,-66.719258,,,0
,,,,Sainte-Cecile,NB,E8T2X6,CA,,47.867678,-64.636246,,,0
,,,,Saint-Damien,NB,E4V3E6,CA,,46.350258,-64.82271,,,0
,,,,Saint-Ignace,NB,E4X2K1,CA,,46.693661,-65.087275,,,0
,,,,Saint-Irenee,NB,E1X4V7,CA,,47.490995,-64.999904,,,0
,,,,Sainte-Louise,NB,E8K2X4,CA,,47.68384,-65.792171,,,0
,,,,St Thomas,NB,E7P3E1,CA,,46.326187,-67.603609,,,0
,,,,Saint Julien,NL,A0K3N0,CA,,51.083333,-55.783333,,,0
,,,,Saint Ann,NS,B1X1T1,CA,,46.25,-60.616667,,,0
,,,,St Agatha,ON,N0B2L0,CA,,43.463447,-80.687981,,,0
,,,,St Albert,ON,K0A3C0,CA,,45.280631,-75.334972,,,0
,,,,St Davids,ON,L0S1P0,CA,,43.152171,-79.105816,,,0
,,,,St Eugene,ON,K0B1P0,CA,,45.456488,-74.432715,,,0
,,,,St Jacobs,ON,N0B2N0,CA,,43.527216,-80.550634,,,0
,,,,Saint-Lin,QC,J5M2T2,CA,,45.85,-73.766667,,,0
,,,,Saint-Pie,QC,J0H1W0,CA,,45.5,-72.9,,,0
BROWNS SHOE SHOP,711292051,50 RIDEAU STREET,,OTTAWA,ON,K1N 9J7,CA,(613) 5674526,45.4259129268293,-75.6924190243902,,,0
IRVING RIVERS LTD,711292540,7A2 24 BYWARD MARKET SQUARE,,OTTAWA,ON,K1N 7A2,CA,(613) 2411415,45.4279954545455,-75.6929915151515,,,0
PRESTON HARDWARE LTD,711293273,234 - 248 PRESTON STREET,,OTTAWA,ON,K1R 7R4,CA,(613) 2307166,45.4051707692308,-75.7122584615385,,,0
MARK'S WORK WEARHOUSE,711292873,24 500 Terminal Avenue,,Ottawa,ON,K1G 0Z3,CA,(613) 8604354,45.398527,-75.677147,,,0
SEARS,711293379,320 BOULEVARD SAINT-JOSEPH,LES GALERIES DE HULL,HULL,QC,J8Y 3Y9,CA,,45.4410467,-75.7328269,,,0
THE SHOE COMPANY,711293674,550 TERMINAL AVENUE,,OTTAWA,ON,K1G 0Z3,CA,,45.4149994917044,-75.6449651622103,,,0
CHAUSSURES YELLOW,711292243,100 TRAINYARDS DRIVE,,OTTAWA,ON,K1G 3S2,CA,(613) 2447353,45.4127632582244,-75.6451402971094,,,0
RIOBEC SECURITE INC.,711293275,540 BOUL SAINT JOSEPH,,GATINEAU,QC,J8Y 4A3,CA,(819) 7705503,45.4490171,-75.7345342,,,0
DSW,711292423,595 INDUSTRIAL AVENUE,,OTTAWA,ON,K2C 7K3,CA,,45.4112054714198,-75.6427305902104,,,0
KIDDIE KOBBLER,711292558,1177 ST. LAURENT BLVD,,OTTAWA,ON,K1K 3B7,CA,(613) 7466411,45.4234616666667,-75.6367833333333,,,0
SEARS,711293331,1250 BOULEVARD ST.-LAURENT,ST.-LAURENT SHOPPING CENTRE,OTTAWA,ON,K1K 3B9,CA,,45.4231255555556,-75.6367922222222,,,0
MARK'S WORK WEARHOUSE,711293185,91 Boulevard de la Gappe,,Gatineau,QC,J8T 0B5,CA,(819) 2468393,45.4685579411244,-75.7159065588461,,,0
KIDDIE KOBBLER,711292559,395 RICHMOND ROAD,,OTTAWA,ON,K2A 0E9,CA,(613) 7159525,45.3908776840167,-75.7564485868261,,,0
MARK'S WORK WEARHOUSE,711293021,45 Boul du Plateau,,Gatineau,QC,J9A 3G1,CA,(819) 7722712,45.4361758248373,-75.7726972505424,,,0
CHAUSSURES YELLOW,711292328,75 BOULEVARD DU PLATEAU,,GATINEAU,QC,J9A 3G1,CA,(819) 7780264,45.4359717982558,-75.7738218642447,,,0
CHAUSSURES YELLOW,711292322,680 BOULEVARD MALONEY O,,GATINEAU,QC,J8T 8K7,CA,(819) 2431038,45.4812977,-75.6791907,,,0
CRS CONTRACTORS RENTAL SUPPLY,711292386,2489 SHEFFIELD ROAD,1404811 ONTARIO LTD,OTTAWA,ON,K1B 3V6,CA,(613) 7448889,45.4088756200147,-75.6089771704568,,,0
MARK'S WORK WEARHOUSE,711292775,1501 Innes Road,,Gloucester,ON,K1B 1C5,CA,(613) 7442499,45.4157940288678,-75.6041451796347,,,0
APPLE SADDLERY INC,711291960,1875 INNES ROAD,,OTTAWA,ON,K1B 4C6,CA,(613) 7444040,45.4174453846154,-75.6004376923077,,,0
LE SPECIALISTE DE LE SECURITE,711292573,154 MALONEY EST,,GATINEAU,QC,J8P 1C1,CA,(819) 6637581,45.4838711428571,-75.6499537142857,,,0
MARK'S WORK WEARHOUSE,711292866,2210 Bank Street,,Ottawa,ON,K1V 1J5,CA,(613) 7338648,45.3573151020408,-75.6538102040816,,,0
MISTER SAFETY SHOES INC.,711293233,1526 MERIVALE ROAD,,OTTAWA,ON,K2G 3J7,CA,(613) 2252424,45.355755,-75.7364675,,,0
SEARS,711293358,2165 CARLING AVE,CARLINGWOOD SHOPPING CENTRE,OTTAWA,ON,K2A 1H2,CA,,45.3705308333333,-75.7700666666667,,,0
THE SHOE COMPANY,711293584,1651 MERIVALE ROAD,,OTTAWA,ON,K2G 3K2,CA,,45.3503533333333,-75.7330833333333,,,0
T.S.K. SAFETY,711293558,111 COLONNADE ROAD,,NEPEAN,ON,K2E 7M3,CA,(613) 7270446,45.3461067458999,-75.7026745647431,,,0
OTTAWA SAFETY/IND.SUPPLIES INC,711293264,8A - 190 COLONNADE ROAD,,OTTAWA,ON,K2E 7J5,CA,(613) 7270765,45.341573,-75.723042,,,0
BLR SAFETY & FIRST AID INC,711291995,"5330 CANOTEK ROAD, UNIT 1,",,GLOUCESTER,ON,K1J 9J3,CA,(613) 7452939,45.4531649383626,-75.5858976755713,,,0
WALMAR VENTILATION PRODUCTS,711293808,24 GURDWARA ROAD,,NEPEAN,ON,K0G 1J0,CA,(613) 2259774,45.3367710988919,-75.7035957931124,,,0
MARK'S WORK WEARHOUSE,711292816,1840 Merivale Road,,Nepean,ON,K2G 1E6,CA,(613) 7238911,45.3357256516703,-75.7247750269116,,,0
BROWNS SHOE SHOP,711292020,100 BAYSHORE DRIVE,,OTTAWA,ON,K2B 8C1,CA,(613) 7210741,45.34921,-75.80515,,,0
CHAUSSURES YELLOW,711292251,107 - 181 RUE PRINCIPALE,,GATINEAU,QC,J9H 6A6,CA,(819) 6820929,45.394865,-75.845573125,,,0
MARK'S WORK WEARHOUSE,711293181,9 1821 Robertson Road,,Nepean,ON,K2H 8X3,CA,(613) 5963056,45.3244756696992,-75.8273136671043,,,0
KIDDIE KOBBLER,711292561,PLACE D'ORLEANS SHOPPING CENTRE,110 PLACE D'ORLEANS DRIVE,ORLEANS,ON,K1C 2L9,CA,(613) 8348876,45.47765,-75.51262,,,0
THE SHOE COMPANY,711293664,4240 INNES ROAD,,ORLEANS,ON,K4A 5E6,CA,,45.457611022537,-75.4976864211206,,,0
MARK'S WORK WEARHOUSE,711293013,4338 Innes Road,,Orleans,ON,K4A 3Y3,CA,(613) 8667324,45.4593016873047,-75.4930733331053,,,0
MARK'S WORK WEARHOUSE,711292851,2055 10 Line Road,,Orleans,ON,K4A 4C5,CA,(613) 8247729,45.45909,-75.48671,,,0
THE SHOE COMPANY,711293639,3161 GREENBANK ROAD,,NEPEAN,ON,K2J 4H9,CA,,45.2690833333333,-75.7455133333333,,,0
MARK'S WORK WEARHOUSE,711292941,3161 Greenbank Road N,,Nepean,ON,K2J 4H9,CA,(613) 8231296,45.2690833333333,-75.7455133333333,,,0
MARK'S WORK WEARHOUSE,711292889,255 Kanata Avenue,,Kanata,ON,K2T 1K5,CA,(613) 5929578,45.3123249640648,-75.9069541617917,,,0
THE SHOE COMPANY,711293686,650 EARL GREY DRIVE,,KANATA,ON,K2T 1H6,CA,,45.3117196572149,-75.9113474571518,,,0
MARK'S WORK WEARHOUSE,711293089,56 BBOULEVARD DE LA CITE DES JEUNES,,Vaudreuil-Dorion,QC,J7V 9L5,CA,(450) 4246029,45.4064465,-74.0371777,,,0
CHAUSSURES YELLOW,711292291,3080 BOULEVARD DE LA GARE,,VAUDREUIL-DORION,QC,J7V 0H1,CA,(450) 5103177,45.3976246,-74.0562802,,,0
CHAUSSURES YELLOW,711292280,2104 BOULEVARD MONSEIGNEUR-LANGLOIS,,SALABERRY-DE-VALLEYFIELD,QC,J6S 5R1,CA,(450) 3732233,45.2717686,-74.1184979,,,0
MARK'S WORK WEARHOUSE,711292829,1940 Boul Monseigneur-Langlois,,Salaberry-de-Valleyfield,QC,J6S 5R1,CA,(450) 3716461,45.27089,-74.1208835,,,0
LE BOUTTIER DU CINQ,711292572,74 RUE DE GRANDE ILE,,SALABERRY DE VALLEYFIELD,QC,J6S 3M3,CA,(450) 3771837,45.2637433333333,-74.1329866666667,,,0
CHAUSSURES YELLOW,711292325,705 AVE DU PONT NORD,,ALMA,QC,G8B 5B8,CA,(418) 4804599,48.5618,-71.64235,,,0
SEARS,711293418,705 AVENUE DU PONT NORD,,ALMA,QC,G8B 6T5,CA,,48.5618,-71.64235,,,0
SPI SECURITE JONQUIERE,711293523,151 CLAIRE-FONTAINE,,ALMA,QC,G8B 6W9,CA,(418) 5429505,48.5640331034483,-71.6442082758621,,,0
LES VARIETES L.C.R. INC,711292586,1055 AVE DU POINT SUD,,ALMA,QC,G8B 2V7,CA,,48.5340948,-71.6464538,,,0
LES VARIETES L.C.R. INC,711292593,925 AVENUE DU POINT NORD,,ALMA,QC,G8B 7B6,CA,(418) 6625932,48.568038,-71.6384397,,,0
THE SHOE COMPANY,711293662,40 KINGSTON ROAD E,,AJAX,ON,L1Z 1E9,CA,,43.8617669762555,-79.0236788492579,,,0
MARK'S WORK WEARHOUSE,711292987,40 Kingston Road E,,Ajax,ON,L1Z 1E9,CA,(905) 4263534,43.8617669762555,-79.0236788492579,,,0
MARK'S WORK WEARHOUSE,711292821,1899 Brock Road,,Pickering,ON,L1V 4H7,CA,(905) 4271866,43.84796,-79.07391,,,0
SEARS,711293340,1355 KINGSTON ROAD,PICKERING TOWN CENTRE,PICKERING,ON,L1V 1B8,CA,,43.8381477777778,-79.0872377777778,,,0
MARK'S WORK WEARHOUSE,711292777,1535 Highway 7A,,Port Perry,ON,L9L 1B8,CA,(905) 9821803,44.0970974,-78.9593026,,,0
CHAUSSURES YELLOW,711292247,1020 BOULEVARD MONSEIGNEUR-DE-LAVAL,,BAIE-SAINT-PAUL,QC,G3Z 2W6,CA,(418) 4350248,47.44539,-70.511,,,0
CHEZ ORIGENE INC,711292350,111 RUE ST JEAN BAPTISTE,,BAIE ST PAUL,QC,G3Z 1M9,CA,(418) 4356800,47.4454735,-70.5112519,,,0
MARK'S WORK WEARHOUSE,711292967,351 Argyle Street S,,Caledonia,ON,N3W 1K7,CA,(905) 7652343,43.0628659866086,-79.9606471426618,,,0
TSC STORES,711293785,490 BRANT COUNTY ROAD #18,,BRANTFORD,ON,N3T 5M1,CA,,43.12424,-80.01963,,,0
MARK'S WORK WEARHOUSE,711292776,1508 Upper James Street,,Hamilton,ON,L9B 1K3,CA,(905) 5755811,43.2057114246544,-79.8916304004474,,,0
FACTORY SHOE,711292453,1151 UPPER JAMES STREET,,HAMILTON,ON,L9C 3B2,CA,(905) 3879799,43.2160751515152,-79.8870390909091,,,0
MARK'S WORK WEARHOUSE,711292672,1015 Golf Links Road,,Ancaster,ON,L9K 1L6,CA,(905) 3043375,43.2280192496929,-79.9390965911065,,,0
THE SHOE COMPANY,711293595,1791 STONE CHURCH ROAD E,,STONEY CREEK,ON,L8J 0B4,CA,,43.1921244,-79.8125988,,,0
DSW,711292424,60 MATINDALE CRESCENT,,ANCASTER,ON,L9K 1J9,CA,,43.2303552,-79.9422036,,,0
BROWNS SHOE SHOP,711292083,999 UPPER WENTWORTH STREET,,HAMILTON,ON,L9A 4X5,CA,(905) 3856016,43.21707,-79.86449,,,0
SEARS,711293440,999 UPPER WENTWORTH STREET,LIMERIDGE MALL,HAMILTON,ON,L9A 4X5,CA,,43.21707,-79.86449,,,0
MARK'S WORK WEARHOUSE,711293193,920 Upper Wentworth Street,,Hamilton,ON,L9A 5C5,CA,(905) 5743068,43.2194205882353,-79.8636782352941,,,0
MARK'S WORK WEARHOUSE,711293120,640 Queenston Road,,Hamilton,ON,L8K 1K2,CA,(905) 5608010,43.2301072314484,-79.7743128160004,,,0
MARK'S WORK WEARHOUSE,711292735,1283 Barton Street E,,Hamilton,ON,L8H 2V4,CA,(905) 5493329,43.24963,-79.80794,,,0
SEARS,711293424,75 CENTENNIAL PARKWAY N,HAMILTON EASTGATE SQUARE,HAMILTON,ON,L8E 2O2,CA,,43.2304025,-79.763255,,,0
MARK'S WORK WEARHOUSE,711293182,9 7654 Tecumseh Road E,,Windsor,ON,N8T 1E9,CA,(519) 9743226,42.2964514285714,-83.0252671428571,,,0
WORK AUTHORITY,711293819,"100 - 2301 TECUMSEH ROAD E, UNIT 100",,WINDSOR,ON,N8W 1E6,CA,(519) 9719802,42.29949,-83.0093,,,0
SEARS,711293372,3050 HOWARD AVE,DEVONSHIRE MALL,WINDSOR,ON,N8X 3Y7,CA,,42.2742911889364,-83.0051525767869,,,0
MARK'S WORK WEARHOUSE,711292933,3100 Howard Avenue,,Windsor,ON,N8X 3Y8,CA,(519) 9726075,42.2735941303494,-83.0047126284042,,,0
MISTER SAFETY SHOES INC.,711293244,4265 TECUMSEH ROAD E,,WINDSOR,ON,N8W 1K2,CA,(519) 9880500,42.3065466666667,-82.9724892307692,,,0
WORK AUTHORITY,711293829,2001 PROVINCIAL ROAD,,WINDSOR,ON,N8W 5V7,CA,(519) 9728376,42.2526004411765,-82.9674259558823,,,0
TSC STORES,711293777,401 TALBOT STREET N,,ESSEX,ON,N8M 2W3,CA,,42.18399,-82.83327,,,0
MARK'S WORK WEARHOUSE,711292920,300 Maidstone Avenue W,,Essex,ON,N8M 2X6,CA,(519) 7768672,42.1772175,-82.8412874,,,0
TSC STORES,711293771,286 TORONTO STREET S,,UXBRIDGE,ON,L9P 1H3,CA,,44.09411,-79.13074,,,0
MARK'S WORK WEARHOUSE,711292911,2A Welwood Drive,,Uxbridge,ON,L9P 1Z7,CA,(905) 8620600,44.08879,-79.13452,,,0
MARK'S WORK WEARHOUSE,711292699,1090 Hoover Park Drive,,Stouffville,ON,L4A 0K2,CA,(905) 6424622,43.9568185393775,-79.2786247921156,,,0
HEEL BOY,711292529,212 PRINCESS STREET,,KINGSTON,ON,K7L 1B2,CA,(613) 5443203,44.2320928,-76.4860788,,,0
A-ONE CLOTHING STORE LIMITED,711291958,358 KING STREET EAST,,KINGSTON,ON,K7L 3B6,CA,(613) 5488732,44.2310723529412,-76.4810594117647,,,0
TRAILHEAD,711293729,626 PRINCESS STREET,,KINGSTON,ON,K7L 1B5,CA,(613) 5464757,44.2367422222222,-76.50119,,,0
ALIGN ORTHOTICS & REHAB,711291946,920 PRINCESS STREET,,KINGSTON,ON,K7L 1H1,CA,(613) 5472222,44.2406746153846,-76.5103965384615,,,0
MARK'S WORK WEARHOUSE,711292752,14 646 Gardiners Road,,Kingston,ON,K7M 3X9,CA,(613) 3841700,44.22157,-76.51603,,,0
MARK'S WORK WEARHOUSE,711292685,1041 Princess Street,,Kingston,ON,K7L 1H3,CA,(613) 5473636,44.2434706139934,-76.516467950381,,,0
TSC STORES,711293736,1093 JOHN COUNTER BOULEVARD,,KINGSTON,ON,K7K 6C7,CA,,44.2594794764497,-76.5028288536486,,,0
MARK'S WORK WEARHOUSE,711292684,1040 Division Street,,Kingston,ON,K7K 0C3,CA,(613) 5463223,44.2610963157895,-76.4982852631579,,,0
THE SHOE COMPANY,711293688,656 GARDINERS ROAD,,KINGSTON,ON,K7M 3X9,CA,,44.2445775814778,-76.5679248972085,,,0
LES MAGASINS COLLINS,711292584,731 GARDINERS ROAD,,KINGSTON,ON,K7M 3Y5,CA,(613) 3899886,44.2479388235294,-76.5681494117647,,,0
SEARS,711293439,945 GARDINERS ROAD,CATARAUI TOWN CENTRE,KINGSTON,ON,K7M 7H4,CA,,44.2564347058824,-76.5687373529412,,,0
EXPERT AU TRAVAIL,711292441,"234 RUE ST-CHARLES, LOCAL 104",,SAINTE-THERESE,QC,J7E 2B4,CA,(450) 9791630,45.6439997,-73.8603869,,,0
LITTLE BURGUNDY,711292621,317 7TH AVENUE SW,,CALGARY,AB,T2P 2Y9,CA,(403) 4410647,51.0464549,-114.0685307,,,0
BROWNS SHOE SHOP,711292047,317 7TH AVENUE SW,,CALGARY,AB,T2P 2Y9,CA,(403) 2666209,51.0464549,-114.0685307,,,0
GRAVITY POPE,711292513,1126 17 AVE SW,,CALGARY,AB,T2T 0B4,CA,(403) 2090961,51.038057,-114.088232,,,0
MARK'S WORK WEARHOUSE,711292912,30 1035 64 Avenue SE,,Calgary,AB,T2H 2J7,CA,(403) 2559220,51.0268116666667,-114.060438333333,,,0
SEARS,711293348,1616-14TH AVE N.W.,NORTH HILL SHOPPING CENTRE,CALGARY,AB,T2N 1M6,CA,,51.0643608369999,-114.097836916249,,,0
MARK'S WORK WEARHOUSE,711292786,1632 14 Avenue NW,,Calgary,AB,T2N 1M7,CA,(403) 2209242,51.0654324,-114.0996443,,,0
JOBSITE WORKWEAR,711292549,"#303, 723 - 46TH AVENUE SE",,CALGARY,AB,T2G 2A4,CA,(403) 2878818,51.011032,-114.04651,,,0
MARK'S WORK WEARHOUSE,711292725,1200 - 37th Street SW,,Calgary,AB,T3C 1S2,CA,(403) 4403890,51.04149,-114.14127,,,0
WORK AUTHORITY,711293847,4120 - 901 64TH AVENUE NE,DEERFOOT CITY MALL,CALGARY,AB,T2E 7P4,CA,(403) 2749254,51.09605,-114.04061,,,0
LITTLE BURGUNDY,711292631,6455 MACLEOD TRAIL SW,,CALGARY,AB,T2H 0K9,CA,(403) 3551360,50.9959775,-114.071693125,,,0
BROWNS SHOE SHOP,711292067,6455 MACLEOD TRAIL SW,,CALGARY,AB,T2H 0K8,CA,(403) 2524168,50.9959775,-114.071693125,,,0
MARK'S WORK WEARHOUSE,711293127,6636 MacLeod Trail SW,,Calgary,AB,T2H 0K6,CA,(403) 2535708,50.9950016259166,-114.071400946044,,,0
ARMY & NAVY DEPT STORE LTD,711291963,1107 33RD AVENUE NE,,CALGARY,AB,T2A 6T2,CA,(403) 2486660,51.0611805,-113.9876458,,,0
MARK'S WORK WEARHOUSE,711292679,1035 64 Avenue SE,,Calgary,AB,T2H 2J7,CA,(403) 6927500,50.995405,-114.041563,,,0
MARK'S WORK WEARHOUSE,711293119,6325 11 Street SE,,Calgary,AB,T2H 2L6,CA,(403) 2535711,50.996027979798,-114.038475050505,,,0
MARK'S WORK WEARHOUSE,711292929,3014 Sunridge Blvd NE,,Calgary,AB,T1Y 7G6,CA,(403) 2509942,51.076376875,-113.99207875,,,0
DSW,711292407,2525 36TH STREET NE,,CALGARY,AB,T1Y 5T4,CA,,51.07383,-113.98196,,,0
SHOE WAREHOUSE,711293479,2525-36 STREET NE,,CALGARY,AB,T1Y 5T4,CA,,51.07383,-113.98196,,,0
LITTLE BURGUNDY,711292624,3625 SHAGANAPPI TRAIL NW,,CALGARY,AB,T3A 0E2,CA,(403) 2479162,51.0856,-114.153,,,0
BROWNS SHOE SHOP,711292049,3625 SHAGANAPPI TRAIL NW,,CALGARY,AB,T3A 0E2,CA,(403) 2473236,51.0856,-114.153,,,0
SHOE WAREHOUSE,711293492,8228 MACLEOD TRAIL SE,,CALGARY,AB,T2H 2B8,CA,,50.9819,-114.07147,,,0
MARK'S WORK WEARHOUSE,711292949,33 Heritage Meadows Way SE,,Calgary,AB,T2H 3B8,CA,(403) 2784885,50.9839677777778,-114.041452222222,,,0
THE SHOE COMPANY,711293676,5657 SIGNAL HILL CENTRE SW,,CALGARY,AB,T3H 3P8,CA,,51.0186569143896,-114.170093238616,,,0
MARK'S WORK WEARHOUSE,711292997,400 Stewart Green SW,,Calgary,AB,T3H 3C8,CA,(403) 2492504,51.0154497714749,-114.17054177502,,,0
SEARS,711293347,1600-3800 MEMORIAL DRIVE N.E.,MARLBOROUGH MALL,CALGARY,AB,T2A 2K2,CA,,51.06003,-113.95827,,,0
WORK AUTHORITY,711293858,9250 MACLEOD TRAIL SE,,CALGARY,AB,T2J 0P5,CA,(403) 2581704,50.9711966405444,-114.07148,,,0
MARK'S WORK WEARHOUSE,711293097,5855 68 Avenue SE - Bldg A,,Calgary,AB,T2C 5A7,CA,(403) 7171400,50.9936974,-113.9456483,,,0
SEARS,711293315,#1-100 ANDERSON RD S.E.,CALGARY SOUTH CENTRE,CALGARY,AB,T2J 3V1,CA,,50.95021,-114.06522,,,0
MARK'S WORK WEARHOUSE,711292913,30 Crowfoot Terrace NW,,Calgary,AB,T3G 4J8,CA,(403) 2392261,51.1269236183237,-114.199172764803,,,0
MARK'S WORK WEARHOUSE,711292737,130 Country Village Road NE,,Calgary,AB,T3K 6B8,CA,(403) 5671925,51.16149,-114.06033,,,0
CANADIAN FOOTWEAR,711292102,303 - 150 CROWFOOT CRESCENT NW,,CALGARY,AB,T3G 3T2,CA,(403) 2201118,51.1282738299575,-114.199084792084,,,0
THE SHOE COMPANY,711293692,72 CROWFOOT TERRACE NW,,CALGARY,AB,T3G 4J8,CA,,51.1274244654085,-114.200864221697,,,0
MARK'S WORK WEARHOUSE,711292717,11602 Sarcee Trail NW,,Calgary,AB,T3R 0A1,CA,(403) 2957249,51.1573240289768,-114.162167194205,,,0
THE SHOE COMPANY,711293569,11692 SARCEE TRAIL NW,,CALGARY,AB,T3R 0A1,CA,,51.1579553329341,-114.162040933413,,,0
THE SHOE COMPANY,711293666,4307 130 AVENUE SE,,CALGARY,AB,T2Z 3V8,CA,,50.930682,-113.9705056,,,0
MARK'S WORK WEARHOUSE,711293036,4889 130 Avenue SE,,Calgary,AB,T2Z 4J2,CA,(403) 2574873,50.9300982,-113.9650816,,,0
THE SHOE COMPANY,711293653,350 SHAWVILLE BOULEVARD SE,,CALGARY,AB,T2Y 3S4,CA,,50.90411103892,-114.069896018789,,,0
MARK'S WORK WEARHOUSE,711292960,350 Shawville Blvd SE,,Calgary,AB,T2Y 3S4,CA,(403) 2014110,50.8981145482586,-114.062596645082,,,0
MARK'S WORK WEARHOUSE,711292971,3647 Portage Avenue,,Winnipeg,MB,R3K 2G6,CA,(204) 8894477,49.8822238461538,-97.3123030769231,,,0
BROWNS SHOE SHOP,711292021,100 CITY CENTRE DRIVE,,MISSISSAUGA,ON,L5B 2C9,CA,(905) 5660842,43.59224,-79.63909,,,0
LITTLE BURGUNDY,711292605,100 CITY CENTRE DRIVE,,MISSISSAUGA,ON,L5B 2C9,CA,(905) 8038555,43.59224,-79.63909,,,0
SHOE CLUB,711293452,16 - 1225 DUNDAS STREET E,,MISSISSAUGA,ON,L4Y 2C5,CA,(905) 9490110,43.5806142857143,-79.6159264285714,,,0
COMFEET MEDICAL SUPPLIES INC,711292361,9-2560 SHEPARD AVE,,MISSISSAUGA,ON,L5A 4E1,CA,(905) 2736857,43.57732,-79.60902,,,0
THE SHOE COMPANY,711293678,5935 MAVIS ROAD,,MISSISSAUGA,ON,L5R 3T7,CA,,43.6100488235294,-79.6929029411765,,,0
MARK'S WORK WEARHOUSE,711293105,5950 Rodeo Drive,,Mississauga,ON,L5R 3V6,CA,(905) 7129991,43.6136645039719,-79.690289847897,,,0
WORK AUTHORITY,711293827,"2 - 905 BRITANNIA ROAD W, UNIT 2",HEARTLAND CENTRE,MISSISSAUGA,ON,L5V 2X8,CA,(905) 5670449,43.6262898181818,-79.6795011818182,,,0
SEARS,711293402,5100 ERIN MILLS PARKWAY,ERIN MILLS TOWN CENTRE,MISSISSAUGA,ON,L5M 4Z5,CA,,43.55879,-79.70681,,,0
STEPSS,711293553,5100 ERIN MILLS PARKWAY,,MISSISSAUGA,ON,L5M 4Z5,CA,(905) 5697559,43.55879,-79.70681,,,0
MARK'S WORK WEARHOUSE,711292871,2333 Millrace Court,,Mississauga,ON,L5N 1W2,CA,(905) 8216850,43.5933745798146,-79.7455655294271,,,0
MARK'S WORK WEARHOUSE,711293211,c/o 2333 Millrace Court,,Mississauga,ON,L5N 1W2,CA,(905) 8216850,43.5933745798146,-79.7455655294271,,,0
THE SHOE COMPANY,711293647,3235 DUNDAS STREET W,,MISSISSAUGA,ON,L5L 5V7,CA,,43.5180337622995,-79.6867364712289,,,0
FACTORY SHOE,711292454,2640 SOUTH SHERIDAN WAY,,MISSISSAUGA,ON,L5J 2M4,CA,(905) 8557817,43.5101699489908,-79.6619363589992,,,0
MARK'S WORK WEARHOUSE,711293192,920 Southdown Road,,Mississauga,ON,L5J 2Y4,CA,(905) 4039346,43.5091580327869,-79.6275124590164,,,0
MARK'S WORK WEARHOUSE,711292885,2501 Hyde Park Gate,,Oakville,ON,L6H 6G6,CA,(905) 8290844,43.51414,-79.68747,,,0
THE SHOE COMPANY,711293637,3135 ARGENTIA ROAD,,MISSISSAUGA,ON,L5N 8E1,CA,,43.5963713979355,-79.7852560497046,,,0
MARK'S WORK WEARHOUSE,711292940,3155 Argentia Road,,Mississauga,ON,L5N 8E1,CA,(905) 7852819,43.5962155816305,-79.785432368155,,,0
SHOE CLUB,711293461,547 STEELES AVENUE E,,BRAMPTON,ON,L6W 4S2,CA,(905) 8744858,43.6769106,-79.7185877,,,0
MARK'S WORK WEARHOUSE,711293084,547 Steeles Avenue E,,Brampton,ON,L6W 4S2,CA,(905) 4593770,43.6769106,-79.7185877,,,0
COMFORT WEAR IN STYLE,711292362,81 GEORGE STREET SOUTH,,BRAMPTON,ON,LY  1P4,CA,(905) 2736857,43.6841571305048,-79.7594129966992,,,0
SEARS,711293363,240 LEIGHLAND AVE,OAKVILLE PLACE,OAKVILLE,ON,L6H 3H6,CA,,43.4622,-79.68899,,,0
WORK AUTHORITY,711293833,"295A QUEEN STREET E, UNIT 53",BRAMROSE SQUARE PLAZA,BRAMPTON,ON,L6W 3W9,CA,(905) 4542739,43.7036305882353,-79.7404347058824,,,0
SHOE CLUB,711293453,25 PEEL CENTRE DRIVE,,BRAMPTON,ON,L6T 3R5,CA,(905) 7933689,43.7174266666667,-79.7234633333333,,,0
SEARS,711293365,25 PEEL CENTRE DRIVE,BRAMALEA CITY CENTRE,BRAMPTON,ON,L6T 3R5,CA,,43.7174266666667,-79.7234633333333,,,0
BROWNS SHOE SHOP,711292037,25 PEEL CENTRE DRIVE,,BRAMPTON,ON,L6T 3R5,CA,(905) 7912257,43.7174266666667,-79.7234633333333,,,0
SCARPINI SHOES,711293309,25 PEEL CENTRE DRIVE,,BRAMPTON,ON,L6T 3R5,CA,(905) 7935979,43.7174266666667,-79.7234633333333,,,0
MARK'S WORK WEARHOUSE,711292701,1100 Kerr Street,,Oakville,ON,L6M 0L4,CA,(905) 8454782,43.4506947556107,-79.6982734214507,,,0
THE SHOE COMPANY,711293603,200 NORTH SERVICE ROAD,,OAKVILLE,ON,L6M 2V1,CA,,43.4506877777778,-79.7009974074074,,,0
DSW,711292411,310 NORTH SERVICE ROAD W,,OAKVILLE,ON,L6M 2R8,CA,,43.4449014238941,-79.7046113420604,,,0
MARK'S WORK WEARHOUSE,711292914,30 Great Lakes Drive,,Brampton,ON,L6R 2K7,CA,(905) 7901599,43.7313883695652,-79.7617590217391,,,0
MARK'S WORK WEARHOUSE,711292729,1220 Steeles Avenue East,,Milton,ON,L9T 6R1,CA,(905) 8764784,43.50431,-79.84123,,,0
THE SHOE COMPANY,711293717,80 GREAT LAKES DRIVE,,BRAMPTON,ON,L6R 2K7,CA,,43.7318802173913,-79.7626041304348,,,0
THE SHOE COMPANY,711293568,1160 STEELES AVENUE E,,MILTON,ON,L9T 6C8,CA,,43.5396878,-79.8725401,,,0
TSC STORES,711293769,28 BRONTE STREET N,,MILTON,ON,L9T 2N5,CA,,43.5091606666667,-79.8888666666667,,,0
MARK'S WORK WEARHOUSE,711292959,3487 Wyecroft Road,,Oakville,ON,L6L 0B6,CA,(905) 8472199,43.3957191803279,-79.7483654098361,,,0
MARK'S WORK WEARHOUSE,711293145,74 280 Guelph Street,,Georgetown,ON,L7G 4B1,CA,(905) 8739621,43.65111,-79.9202025,,,0
CHAUSSURES YELLOW,711292265,1206 - 582 CHEMIN DE TOURAINE,,BOUCHERVILLE,QC,J4B 5E4,CA,(450) 6411411,45.5960711830381,-73.3849549837084,,,0
GLOBO,711292486,548 MONTÉE DES PIONNIERS,,LACHENAIE,QC,J6V 1N9,CA,(450) 5858540,45.7161746,-73.5112014,,,0
LES ENTREPRISES HANDFIELD INC,711292578,832 MONTEE SAINTE-JULIE,,SAINTE-JULIE,QC,J3E 1W9,CA,(450) 6495546,45.59921,-73.3471,,,0
LES VARIETES L.C.R. INC,711292590,2370 RUE ST-HUBERT,,JONQUIERE,QC,G7X 5N4,CA,(418) 6959694,48.4127607692308,-71.2469823076923,,,0
SPI SECURITE JONQUIERE,711293530,3495 BOULEVARD ST-FRANCOIS,,JONQUIERE,QC,G7X 2W5,CA,(418) 5420153,48.4119187,-71.2252079,,,0
SPI SECURITE JONQUIERE,711293525,1542 BOULEVARD ST-PUAL,,CHICOUTIMI,QC,G7J 3C5,CA,(418) 5429505,48.4037558,-71.097403,,,0
LES VARIETES L.C.R. INC,711292592,35 RUE DU PONT,,CHICOUTIMI,QC,G7G 3A4,CA,(418) 5432735,48.43662,-71.06734,,,0
LES VARIETES L.C.R. INC,711292588,1915 BOULEVARD TALBOT,,TALBOT,QC,G7H 7Y4,CA,(418) 5432477,48.3960074,-71.0667839,,,0
RODRIGUE LE BOTTIER ENR.,711293278,280 RUE RACINE EST,,CHICOUTIMI,QC,G7H 1S6,CA,(418) 5438538,48.42758,-71.05996,,,0
SPORT V E,711293545,1516 BOUL TALBOT,,CHICOUTIMI,QC,G7H 4C2,CA,(418) 5433177,48.4020213,-71.0612625,,,0
MARK'S WORK WEARHOUSE,711292759,1401 Boul Talbot,,Chicoutimi,QC,G7H 5N6,CA,(418) 5434033,48.4049983,-71.0557528,,,0
SEARS,711293335,1324 BOULEVARD TALBOT,PLACE DU SAGUENAY,CHICOUTIMI,QC,G7H 4B9,CA,,48.42925,-71.04339,,,0
WUERTH SHOES LTD,711293877,16 WELLINGTON STREET,,STRATFORD,ON,N5A 1W5,CA,(519) 2711623,43.370241,-80.982347,,,0
WHITE BALMER SHOES,711293811,123 ONTARIO STREET,,STRATFORD,ON,N5A 3H1,CA,(519) 2716661,43.3714001025905,-80.9808371462791,,,0
MARK'S WORK WEARHOUSE,711292671,1005 Ontario Street,,Stratford,ON,N5A 6W6,CA,(519) 2721002,43.3707933333333,-80.9478766666667,,,0
SEARS,711293324,1067 ONTARIO STREET,FESTIVAL MARKET PLACE,STRATFORD,ON,N5A 6W6,CA,,43.37074,-80.94492,,,0
TSC STORES,711293773,2954 ONTARIO STREET E,,STRATFORD,ON,N5A 6S5,CA,,43.3706358835546,-80.938229918284,,,0
THE HITCHING POST LTD,711293564,480 QUEEN STREET W,P.O. BOX 670,ST. MARYS,ON,N4X 1B4,CA,(519) 2842360,43.257542972973,-81.1596036486486,,,0
GERBER'S WORKWEAR LTD,711292476,76 ONTARIO ROAD,,MITCHELL,ON,N0K 1N0,CA,(519) 3484700,43.467371627907,-81.1963137209302,,,0
GERBER'S WORKWEAR LTD,711292471,15 MAIN STREET N,,MILVERTON,ON,N0K 1MO,CA,(519) 5958776,43.5662032356507,-80.9218847387076,,,0
CANADIAN FOOTWEAR,711292099,1504 ST MARY'S ROAD,,WINNIPEG,MB,R2M 3V7,CA,(204) 9447474,49.8255815071083,-97.1144593346873,,,0
SEARS,711293328,1225A ST. MARY'S ROAD,ST. VITAL,WINNIPEG,MB,R2M 5E2,CA,,49.8290960091351,-97.1147407069571,,,0
SHOE WAREHOUSE,711293494,845 DAKOTA STREET,,WINNIPEG,MB,R2M 5M3,CA,,49.83014,-97.10659,,,0
MARK'S WORK WEARHOUSE,711293154,785 Dakota Street,,Winnipeg,MB,R2M 5M2,CA,(204) 2565092,49.8319983080678,-97.1081202567231,,,0
WORK AUTHORITY,711293824,"1639 KENASTON BOULEVARD, UNIT F2",,WINNIPEG,MB,R3P 2M4,CA,(204) 4890064,49.8240154253138,-97.2032045686853,,,0
THE SHOE COMPANY,711293581,1599 KENASTON BOULEVARD,,WINNIPEG,MB,R3P 2N3,CA,,49.82615,-97.20526,,,0
MARK'S WORK WEARHOUSE,711292782,1585 Kenaston Blvd,,Winnipeg,MB,R3P 2N3,CA,(204) 4887922,49.8263322637211,-97.2055214369216,,,0
BROWNS SHOE SHOP,711292076,86 - 1225 ST-MARY'S ROAD,,WINNIPEG,MB,R2M 5E5,CA,(204) 2536184,49.878645,-97.125565,,,0
BROWNS SHOE SHOP,711292029,1485 PORTAGE AVENUE,,WINNIPEG,MB,R3G 0W4,CA,(204) 7881216,49.880895,-97.1982425,,,0
SEARS,711293345,1515 PORTAGE AVENUE,POLO PARK SHOPPING CENTRE,WINNIPEG,MB,R3G 0W7,CA,,49.88069,-97.19949,,,0
SHOE WAREHOUSE,711293484,393 PORTAGE AVENUE,,WINNIPEG,MB,R3B 3H6,CA,,49.89194,-97.14844,,,0
MARK'S WORK WEARHOUSE,711292721,120 600 Empress Street,,Winnipeg,MB,R3G 0R5,CA,(204) 7831471,49.8873894,-97.1969094,,,0
THE SHOE COMPANY,711293690,675 EMPRESS STREET,,WINNIPEG,MB,R3G 3P7,CA,,49.8874842105263,-97.1963626315789,,,0
CANADIAN FOOTWEAR,711292098,128 ADELAIDE STREET,,WINNIPEG,MB,R3A 0W5,CA,(204) 9447460,49.8997,-97.142434,,,0
MARK'S WORK WEARHOUSE,711292906,288 Erie Street S,,Leamington,ON,N8H 3C5,CA,(519) 3225131,42.03658,-82.60093,,,0
TSC STORES,711293763,235 TALBOT STREET E,,LEAMINGTON,ON,N8H 1N8,CA,,42.057030521702,-82.5835478825035,,,0
MARK'S WORK WEARHOUSE,711293092,569 Portland Street,,Dartmouth,NS,B2Y 4B1,CA,(902) 4669010,44.67025,-63.53771,,,0
SEARS,711293409,535 PORTLAND STREET,PENHORN MALL,DARTMOUTH,NS,B2Y 4B1,CA,,44.67018,-63.5391,,,0
THE SHOE COMPANY,711293649,33 LEMLAIR ROW,,DARTMOUTH,NS,B3B 0C6,CA,,44.6989004649754,-63.5659769806901,,,0
MARK'S WORK WEARHOUSE,711292915,30 Lamont Terrace,,Dartmouth,NS,B3B 0B5,CA,(902) 4641128,44.6998921125263,-63.5674944735113,,,0
SOURCE ATLANTIC,711293511,100 RADDALL AVENUE,,DARTMOUTH,NS,B3B 1T2,CA,(902) 4688100,44.7034460250601,-63.5889335659936,,,0
SCHOONER INDUSTRIAL PRODUCTS,711293310,100 RADDALL AVENUE,,DARTMOUTH,NS,B3B 1T2,CA,(902) 4688100,44.7034460250601,-63.5889335659936,,,0
WORK AUTHORITY,711293859,"95 AKERLEY BOULEVARD, UNIT G",,DARTMOUTH,NS,B3B 1R7,CA,(902) 4684553,44.7136090897543,-63.5941027690641,,,0
BROWNS SHOE SHOP,711292072,7001 MUMFORD ROAD,,HALIFAX,NS,B3L 2H8,CA,(902) 4547605,44.64759,-63.61962,,,0
SEARS,711293417,7001 MUMFORD ROAD,HALIFAX SHOPPING CENTRE,HALIFAX,NS,B3L 2H8,CA,,44.64759,-63.61962,,,0
MARK'S WORK WEARHOUSE,711293133,7010 Mumford Road,,Halifax,NS,B3L 4W7,CA,(902) 4535553,44.6487,-63.62169,,,0
MURPHY GEAR,711293250,3514 JOSEPH HOWE DRIVE,,HALIFAX,NS,B3L 4H7,CA,(902) 4438641,44.6557723927357,-63.6297687861894,,,0
MARK'S WORK WEARHOUSE,711292771,150 Damascus Road,,Bedford,NS,B4A 0E5,CA,(902) 8354299,44.7509488353652,-63.6440234939045,,,0
MARK'S WORK WEARHOUSE,711292783,1595 Bedford Highway,,Bedford,NS,B4A 3Y4,CA,(902) 8320119,44.73252,-63.65642,,,0
THE SHOE COMPANY,711293597,182 CHAIN LAKE DRIVE,,HALIFAX,NS,B3S 1C5,CA,,44.64652,-63.67323,,,0
DSW,711292403,201 CHAIN LAKE DRIVE PLAZA,,HALIFAX,NS,B3S 1C8,CA,,44.648439464845,-63.6749431501271,,,0
MARK'S WORK WEARHOUSE,711292856,209 Chain Lake Drive,,Halifax,NS,B3S 1C9,CA,(902) 4505159,44.6491789296901,-63.6751963002543,,,0
GOLDEN SILKSCREENING CO. LTD,711292506,25 DOMINION CRESCENT,,LAKESIDE,NS,B3T 1M3,CA,(902) 8768888,44.641883897216,-63.6870824348313,,,0
CHAUSSURES YELLOW,711292342,900 - 10516 BOULEVARD SAINTE-ANNE,,SAINTE-ANNE-DE-BEAUPRE,QC,G0A 3C0,CA,(418) 8271994,46.71198,-71.89066,,,0
MODE BERGERON,711293247,130 RUE SAINT-ANDRE,,LAURIER-STATION,QC,G0S 1N0,CA,(418) 7282232,46.5377985,-71.6326006,,,0
NERO BIANCO,711293253,281 RUE EDWARD ASSH,,SAINTE CATHERINE DE LA JACQUES CARTIER,QC,G3N 1A3,CA,(418) 8751839,46.8304,-71.60797,,,0
RONSONS,711293284,150 - 1711 152ND STREET,,WHITE ROCK,BC,V4A 4N3,CA,(604) 5312152,49.03112,-122.80113,,,0
MARK'S WORK WEARHOUSE,711292876,2425 160 Street,,Surrey,BC,V3Z 0C8,CA,(604) 5365221,49.0460084615385,-122.7792,,,0
SEARS,711293355,19705 FRASER HWY,WILLOWBROOK MALL,LANGLEY,BC,V3A 7E9,CA,,49.1129122222222,-122.677624444444,,,0
RONSONS,711293287,204 - 19705 FRASER HIGHWAY,,LANGLEY,BC,V3A 7E9,CA,(604) 5328455,49.11349,-122.67889,,,0
ARMY & NAVY DEPT STORE LTD,711291961,100 - 5501 204TH STREET,,LANGLEY,BC,V3A 5N8,CA,(604) 5141774,49.1023109,-122.6581908,,,0
MARK'S WORK WEARHOUSE,711292848,20150 Langley Bypass,,Langley,BC,V3A 9J8,CA,(604) 5302335,49.11333,-122.66451,,,0
MARK'S WORK WEARHOUSE,711293146,7488 King George Blvd,,Surrey,BC,V3W 0H9,CA,(604) 5951030,49.1388355555556,-122.845667777778,,,0
WORK AUTHORITY,711293861,"E101 - 20159 88TH AVENUE E, UNIT F2",,LANGLEY,BC,V1M 0A4,CA,(604) 5130476,49.1653663,-122.6645062,,,0
RONSONS,711293283,10118 152ND STREET - UNIT E2,,SURREY,BC,V3K 9W3,CA,(604) 5803700,49.1864725,-122.80092,,,0
MARK'S WORK WEARHOUSE,711292676,10191 152 Street,,Surrey,BC,V3R 4G6,CA,(604) 5820422,49.187446969697,-122.80091,,,0
LITTLE BURGUNDY,711292607,10355 152 STREET,,SURREY,BC,V3R 7C1,CA,(604) 4951349,49.1906385714286,-122.801012857143,,,0
BROWNS SHOE SHOP,711292022,10355 152 STREET,,SURREY,BC,V3R 7C1,CA,(604) 5850922,49.1906385714286,-122.801012857143,,,0
SEARS,711293323,10355 - 152 STREET SUITE 1720,GUILFORD CENTRE,SURREY,BC,V3R 7C1,CA,,49.1906385714286,-122.801012857143,,,0
DSW,711292422,5000 CANOE PASS WAY,,TSAWWASSEN,BC,V4M 0B3,CA,,49.0412861,-123.0842382,,,0
BROWNS SHOE SHOP,711292052,5000 CANOE PASS WAY,,TSAWWASSEN,BC,V4M 0B3,CA,(604) 9481415,49.0412861,-123.0842382,,,0
MARK'S WORK WEARHOUSE,711292895,26310 Fraser Highway,,Aldergrove,BC,V4W 2Z7,CA,(604) 8563774,49.0599655555556,-122.495718518519,,,0
,,,,Black Lake,QC,G6H1T4,CA,,46.033333,-71.366667,,,0
,,,,Black Lake,SK,S0J0H0,CA,,59.133316,-105.59175,,,0
WETASKIWIN CO-OP ASSOCIATION,711293810,4707 40TH AVENUE,,WETASKIWIN,AB,T9A 2B8,CA,(780) 3529121,52.95979375,-113.367825,,,0
MARK'S WORK WEARHOUSE,711292976,3851 56 Street,,Wetaskiwin,AB,T9A 2B1,CA,(780) 3526839,52.95797,-113.3901,,,0
MARK'S WORK WEARHOUSE,711292860,2129 Hawkins Street,,Port Coquitlam,BC,V3B 0G6,CA,(604) 4645633,49.2541485714286,-122.738402857143,,,0
MARK'S WORK WEARHOUSE,711292852,20758 Lougheed Highway,,Maple Ridge,BC,V2X 2R3,CA,(604) 4637277,49.2180958333333,-122.646241666667,,,0
,,,,Frontenac County,ON,K0H2E0,CA,,44.75,-76.833333,,,0
,,,,Frontenac County,QC,G0Y1J0,CA,,45.666667,-71,,,0
MARK'S WORK WEARHOUSE,711292877,244-375 St. Albert Trail,,St. Albert,AB,T8N 3K8,CA,(780) 4586010,53.6290142042453,-113.620125207437,,,0
WORK AUTHORITY,711293821,13208 137 AVENUE NW,,EDMONTON,AB,T5L 4Z6,CA,(780) 4757886,53.601067,-113.549722,,,0
THE SHOE COMPANY,711293573,13616 - 137 AVENUE NW,,EDMONTON,AB,T5L 5C9,CA,,53.5995506122449,-113.556432857143,,,0
JOBSITE WORKWEAR,711292551,16320 - 111TH AVENUE NW,,EDMONTON,AB,T5M 4G3,CA,(780) 4813710,53.5591251,-113.6040248,,,0
MISTER SAFETY SHOES INC.,711293228,10175 186 STREET NW,,EDMONTON,AB,T5S 0G5,CA,(780) 4887708,53.55224,-113.64394,,,0
MARK'S WORK WEARHOUSE,711293198,96 Campsite Road,,Spruce Grove,AB,T7X 4J3,CA,(780) 9620047,53.5404,-113.934590416667,,,0
MARK'S WORK WEARHOUSE,711293110,620 1100 Westmount Shopping Centre NW,,Edmonton,AB,T5M 3L7,CA,(780) 4792478,53.560425,-113.5730749,,,0
SHOE WAREHOUSE,711293463,109th STREET & PRINCESS ELIZABETH AVENUE,,EDMONTON,AB,T5G 3A6,CA,,53.564022,-113.508534,,,0
LITTLE BURGUNDY,711292646,WEST EDMONTON MALL,UNIT R213,EDMONTON,AB,T5T 4M2,CA,(780) 4841049,53.5403219,-113.6559627,,,0
SEARS,711293325,109 ST. & PRINCESS ELIZABETH,KINGSWAY GARDEN MALL,EDMONTON,AB,T5G 0Y3,CA,,53.56129,-113.50359,,,0
THE SHOE COMPANY,711293645,318 MAYFIELD COMMON,,EDMONTON,AB,T5P 4B3,CA,,53.5421138840627,-113.611868927498,,,0
MARK'S WORK WEARHOUSE,711293207,9915 178 Street,,Edmonton,AB,T5T 6L8,CA,(780) 4831026,53.5367157142857,-113.62738,,,0
MARK'S WORK WEARHOUSE,711293179,8882 170 Street,,Edmonton,AB,T5T 3J7,CA,(780) 4441831,53.5236180597015,-113.615489253731,,,0
BROWNS SHOE SHOP,711292079,8882 170 STREET,,EDMONTON,AB,T5T 4J2,CA,(780) 4840018,53.5236180597015,-113.615489253731,,,0
DSW,711292426,8882-170TH STREET,,EDMONTON,AB,T5T 3J7,CA,,53.5224397,-113.6218728,,,0
MARK'S WORK WEARHOUSE,711292907,2913 48 Avenue,,Athabasca,AB,T9S 0A4,CA,(780) 6759724,54.7169183686515,-113.254225674162,,,0
GRAVITY POPE,711292510,"#2, 10442 - 82 AVENUE NW",,EDMONTON,AB,T6E 2A2,CA,(780) 4391637,53.51814,-113.498852037641,,,0
GRAVITY POPE,711292516,8220 104TH STREET NW,,EDMONTON,AB,T6E 4B2,CA,(780) 9881637,53.518327755102,-113.497619795918,,,0
ARMY & NAVY DEPT STORE LTD,711291962,10411 82ND AVENUE NW,,EDMONTON,AB,T6E 2A1,CA,(780) 4335503,53.5179052,-113.4981816,,,0
SEARS,711293428,82ND AVE & 83RD ST,BONNIE DOON,EDMONTON,AB,T6C 4E4,CA,,53.5179873,-113.4552265,,,0
MARK'S WORK WEARHOUSE,711292682,10360 65 Avenue,,Edmonton,AB,T6H 1T9,CA,(780) 4373050,53.5023005,-113.4965427,,,0
SEARS,711293318,#51 5015 111 ST NW,IVANHOE CAMBRIDGE 11 INC,EDMONTON,AB,T6H 4M6,CA,,53.4874517647059,-113.516487058824,,,0
BROWNS SHOE SHOP,711292062,5015 111 STREET NW,,EDMONTON,AB,T6H 4M6,CA,(780) 4336960,53.4874517647059,-113.516487058824,,,0
WORK AUTHORITY,711293860,9730  51 AVENUE NW,,EDMONTON,AB,T6E 0A6,CA,(780) 4389067,53.488722,-113.481181,,,0
JOBSITE WORKWEAR,711292556,7423 ROPER ROAD NW,,EDMONTON,AB,T6B 3K9,CA,(780) 4618005,53.4930393103448,-113.441198275862,,,0
SPI SECURITE JONQUIERE,711293534,5407 ROPER ROAD,,EDMONTON,AB,T6B 3L6,CA,(780) 4309085,53.49542,-113.421130107676,,,0
DSW,711292413,3803 CALGARY TRAIL SOUTH NW,,EDMONTON,AB,T6J 7A9,CA,,53.4723414084507,-113.4957,,,0
MARK'S WORK WEARHOUSE,711293194,9230 41 Avenue NW,,Edmonton,AB,T6E 6R7,CA,(780) 4374887,53.4768466,-113.4708081,,,0
BOUTIQUE JOMA INC,711292008,839 Notre Dame Street,,EMBRUN,ON,K0A 1W1,CA,(613) 4430101,45.2692795884584,-75.294553715178,,,0
LES VARIETES L.C.R. INC,711292589,2100 RUE BAGOT,,LA BAIE,QC,G7B 3Z3,CA,(418) 5443305,48.3357305882353,-70.8942517647059,,,0
MARK'S WORK WEARHOUSE,711292867,2223 Victoria Avenue East,,Regina,SK,S4N 6E4,CA,(306) 7892990,50.4469992,-104.5501889,,,0
SEARS,711293349,1720 HAMILTON STREET,CORNWALL CENTRE,REGINA,SK,S4P 4A5,CA,,50.4518287755102,-104.609374081633,,,0
THE SHOE COMPANY,711293613,2038 PRINCE OF WALES DRIVE,,REGINA,SK,S4V 3A6,CA,,50.4461085,-104.5331195,,,0
MARK'S WORK WEARHOUSE,711292898,2715 Gordon Road,,Regina,SK,S4S 6H7,CA,(306) 5223222,50.4045522147651,-104.621242281879,,,0
WORK AUTHORITY,711293838,343 PARK STREET,,REGINA,SK,S4N 5B2,CA,(306) 7219667,50.4728842857143,-104.57971,,,0
DSW,711292415,4882 GORDON ROAD,,REGINA,SK,S4W 0B7,CA,,50.40546,-104.647241004016,,,0
MARK'S WORK WEARHOUSE,711292978,3915 Rochdale Blvd,,Regina,SK,S4X 4P7,CA,(306) 9498118,50.4965701305459,-104.636390703839,,,0
MARK'S WORK WEARHOUSE,711292740,1310 Boul Plateau St-Joseph,,Sherbrooke,QC,J1L 0A5,CA,(819) 5641998,45.4213819007026,-71.9659802689376,,,0
SEARS,711293375,3150 BOULEVARD PORTLAND,CARREFOUR DE L'ESTRIE,SHERBROOKE,QC,J1L 1K3,CA,,45.4032342857143,-71.9537953061224,,,0
CHAUSSURES YELLOW,711292286,2980 BOULEVARD DE PORTLAND,,SHERBROOKE,QC,J1L 1R8,CA,(819) 5620539,45.4034921621622,-71.9480910810811,,,0
CHAUSSURES P.R.I.X. INC,711292168,2700 RUE KING OUEST,,SHERBROOKE,QC,J1L 1C5,CA,(819) 3462500,45.3980797250242,-71.9389629300039,,,0
ENTREPOT DU TRAVAILLEUR,711292435,2504 KING OUEST,,SHERBROOKE,QC,J1J 2E8,CA,(819) 5643993,45.3982581081081,-71.9334535135135,,,0
CHAUSSURES YELLOW,711292344,930 13 AVENUE N,,SHERBROOKE,QC,J1E 3J7,CA,(819) 5662217,45.4213825,-71.8705053,,,0
MARK'S WORK WEARHOUSE,711292858,2100 Willowbrook Drive,,Cranbrook,BC,V1C 7H2,CA,(250) 4263101,49.5294927777778,-115.749221666667,,,0
SHOE WAREHOUSE,711293468,1500 CRANBROOK DRIVE N,,CRANBROOK,BC,V1C 3P9,CA,,49.52445,-115.75379,,,0
MARK'S WORK WEARHOUSE,711292854,2080 Appleby Line,,Burlington,ON,L7L 6M6,CA,(905) 3314660,43.39732,-79.79524,,,0
DSW,711292409,3091 APPLEBY LINE,,BURLINGTON,ON,L7M 0V7,CA,,43.40834,-79.81036,,,0
DROLLIS SAFETY,711292394,3375 NORTH SERVICE RD,,BURLINGTON,ON,L7N 3G2,CA,(905) 3191949,43.3637219705675,-79.7916000302981,,,0
WORK AUTHORITY,711293836,3300 FAIRVIEW STREET,CUMBERLAND SQUARE,BURLINGTON,ON,L7N 3N7,CA,(905) 6818809,43.353245570678,-79.7873053400193,,,0
MARK'S WORK WEARHOUSE,711292946,3230 Fairview Street,,Burlington,ON,L7N 3H5,CA,(905) 6375637,43.35219,-79.79,,,0
THE SHOE COMPANY,711293703,777 GUELPH LINE,,BURLINGTON,ON,L7R 3N2,CA,,43.3464639130435,-79.7963565217391,,,0
EMILLE SHOES LTD,711292432,2394 FAIRVIEW ST,,BURLINGTON,ON,L7R 2E4,CA,(905) 6329688,43.3446555667624,-79.8008403665395,,,0
BROWNS SHOE SHOP,711292080,900 MAPLE AVENUE,,BURLINGTON,ON,L7S 2J8,CA,(905) 3331041,43.3278229640744,-79.8196357784446,,,0
SEARS,711293436,900 MAPLE AVE,MAPLEVIEW CENTRE,BURLINGTON,ON,L7S 2J8,CA,,43.3278229640744,-79.8196357784446,,,0
MARK'S WORK WEARHOUSE,711293213,"Unit1, 17 Clappison Avenue",,Waterdown,ON,L8B 0Y2,CA,(905) 6907401,43.3184343181818,-79.91221,,,0
MARK'S WORK WEARHOUSE,711293126,662 Erb Street,,Waterloo,ON,N2T 2Z7,CA,(519) 7467444,43.4462123255814,-80.5715844186047,,,0
SHOETOPIA FOOTWEAR OUTLET,711293499,655 ERB STREET W,,WATERLOO,ON,N2J 3Z4,CA,(519) 8865730,43.44627,-80.57143,,,0
THE SHOE COMPANY,711293615,210 THE BOARDWALK,,KITCHENER,ON,N2N 0B1,CA,,43.4350873684211,-80.5601810526316,,,0
ADVENTURE GUIDE,711291937,8-225 THE BOARDWALK,,KITCHENER,ON,N2N 0B1,CA,(519) 8863121,43.43354,-80.55856,,,0
MARK'S WORK WEARHOUSE,711292754,1400 Ottawa Street S,,Kitchener,ON,N2E 4E2,CA,(519) 7456263,43.41654,-80.51167,,,0
HEEL BOY,711292528,120 KING STREET S,,WATERLOO,ON,N2J 1N9,CA,(519) 7463365,43.4622559420756,-80.5215579440588,,,0
SHOES 22,711293495,133 WEBER STREET N,,WATERLOO,ON,N2J 3G9,CA,(519) 7464983,43.47224,-80.51496,,,0
TSC STORES,711293796,849 WEBER STREET,,ST JACOBS,ON,N2J 4G8,CA,,43.5092664,-80.5567702,,,0
MARK'S WORK WEARHOUSE,711292950,330 Farmers Market Road,,Waterloo,ON,N2V 0A5,CA,(519) 8800026,43.5108476,-80.5496961,,,0
MISTER SAFETY SHOES INC.,711293238,270 BLEAMS ROAD,,KITCHENER,ON,N2C 2K6,CA,(519) 7489535,43.4104375862069,-80.45982,,,0
FACTORY SHOE,711292455,686 VICTORIA STREET N,,KITCHENER,ON,N2H 5G1,CA,(519) 7432021,43.4615638870913,-80.4726236422466,,,0
THE SHOEPER STORE,711293725,589 FAIRWAY ROAD S,,KITCHENER,ON,N2C 1X4,CA,(519) 7489333,43.4197462224152,-80.45027553617,,,0
MARK'S WORK WEARHOUSE,711293060,500 Fairway Road S,,Kitchener,ON,N2C 1X3,CA,(519) 7482710,43.4204351029896,-80.4462847573838,,,0
SEARS,711293356,200 FAIRWAY ROAD,FAIRVIEW PARK MALL,KITCHENER,ON,N2C 1W9,CA,,43.42337,-80.4358,,,0
TSC STORES,711293764,2400 HOMER WATSON BOULEVARD,,KITCHENER,ON,N2P 2R6,CA,,43.3872021342769,-80.4135260922139,,,0
THE SHOE COMPANY,711293685,65 GATEWAY PARK ROAD,,KITCHENER,ON,N2P 2J9,CA,,43.4078081327234,-80.3908157254036,,,0
WORK AUTHORITY,711293851,4500 KING STREET E,GATEWAY PARK,KITCHENER,ON,N2P 2G4,CA,(519) 6535909,43.40534,-80.38933,,,0
FOOTWEAR VARIETY,711292460,5502 AMENT LINE,R.R. #1,LINWOOD,ON,N0B 2A0,CA,(519) 6981099,43.5861921,-80.7402237,,,0
BRUBACHER SHOES LTD,711292092,7 ARTHUR STREET SOUTH,,ELMIRA,ON,N3B 2M4,CA,(519) 6693349,43.5998473684211,-80.5578526315789,,,0
WUERTH SHOES LTD,711293878,369 MAIN STREET,,EXETER,ON,N0M 1S7,CA,(519) 2350611,43.1939491719494,-81.4168703684815,,,0
SCOTTS ELEVATOR LTD,711293314,6244 WILLIAM STREET,,LUCAN,ON,N0M 2J0,CA,(519) 2274479,43.1863189473684,-81.4079431578947,,,0
MARK'S WORK WEARHOUSE,711293115,620A Newman Road,,Quesnel,BC,V2J 6Z8,CA,(250) 7478437,52.9690677437777,-122.441332293395,,,0
MARK'S WORK WEARHOUSE,711293029,45737 Luckakuck Way,,Chilliwack,BC,V2R 4E8,CA,(604) 8584199,49.1412326208734,-121.95835146655,,,0
SEARS,711293393,45585 LUCKAKUCK WAY,COTTONWOOD CORNERS SHOPPING CT,CHILLIWACK,BC,V2R 1A1,CA,,49.14076,-121.961757272727,,,0
WORK AUTHORITY,711293834,296 CONCEPTION BAY HIGHWAY,,CONCEPTION BAY SOUTH,NL,A1W 5K7,CA,(709) 8348182,47.5095055445395,-52.9728859511954,,,0
FACTORY FOOTWEAR,711292451,296 CONCEPTION BAY HIGHWAY,,CONCEPTON BAY,NL,A1W 5K7,CA,(709) 8348182,47.5095055445395,-52.9728859511954,,,0
FACTORY FOOTWEAR,711292448,296 Conception Bay Highway,,Conception Bay South,NL,A1W 5K7,CA,(709) 8348182,47.5095055445395,-52.9728859511954,,,0
SOURCE ATLANTIC,711293514,38 BECLIN ROAD,,MOUNT PEARL,NL,A1N 5B8,CA,(709) 7485060,47.5282374202098,-52.8186704770426,,,0
THE SHOE COMPANY,711293582,160 OLD PLACENTIA ROAD,,MOUNT PEARL,NL,A1N 4Y9,CA,,47.5093950409616,-52.8169986071578,,,0
MARK'S WORK WEARHOUSE,711292857,21 Merchant Drive,,Mount Pearl,NL,A1N 5J5,CA,(709) 3689677,47.5015668387989,-52.8102671986795,,,0
MARK'S WORK WEARHOUSE,711292981,40 Kelsey Drive,,St. John's,NL,A1B 5C7,CA,(709) 5766275,47.5514,-52.78012,,,0
WORK AUTHORITY,711293850,430 TOPSAIL ROAD,THE VILLAGE SHOPPING CENTRE,ST. JOHN'S,NL,A1E 4N1,CA,(709) 7479454,47.53338,-52.74974,,,0
SEARS,711293397,48 KENMOUNT ROAD,ST. JOHN'S AVALON MALL,ST JOHN'S,NL,A1B 1W3,CA,,47.55914,-52.751975,,,0
FACTORY FOOTWEAR,711292452,393 DUCKWORTH STREET,,ST. JOHN'S,NL,A1C 1H7,CA,(709) 7262861,47.56221,-52.71082,,,0
THE SHOE COMPANY,711293719,85 ABERDEEN AVENUE,,ST JOHN'S,NL,A1A 5P6,CA,,47.6196017045189,-52.7183949822405,,,0
MARK'S WORK WEARHOUSE,711293195,95 Aberdeen Avenue,,St. John's,NL,A1A 5P6,CA,(709) 7229870,47.62,-52.71883,,,0
MARK'S WORK WEARHOUSE,711293025,450 Rue du Moulin,,Tracadie-Sheila,NB,E1X 1A4,CA,(506) 3953310,47.5228788571429,-64.9166017142857,,,0
,, Port Mann Brg,,Coquitlam,BC,V3K,CA,,49.22015,-122.81222,,,0
,,2201 Portage Ave,,Coquitlam,BC,V3K,CA,,49.24498,-122.83148,,,0
,,800 Porter St,,Coquitlam,BC,V3J,CA,,49.26354,-122.86302,,,0
,,531 Perth Ave,,Coquitlam,BC,V3J,CA,,49.25374,-122.88997,,,0
WORK AUTHORITY,711293835,305 MCPHILLIPS STREET,,WINNIPEG,MB,R3E 3H9,CA,(204) 7723433,49.91403,-97.17041,,,0
SHOE WAREHOUSE,711293467,1395 ELLICE AVENUE,,WINNIPEG,MB,R3G 0G3,CA,,49.89411,-97.19655,,,0
MARK'S WORK WEARHOUSE,711292818,1866 Notre Dame Aveune,,Winnipeg,MB,R3H 0X8,CA,(204) 2725106,49.91639,-97.199412,,,0
CHAUSSURES FILLION,711292127,17 PLACE SALLE,,BAIE-COMEAU,QC,G4Z 1J8,CA,(418) 7217925,49.2212208,-68.1517863,,,0
SPI SECURITE JONQUIERE,711293529,256 BOULEVARD LASALLE,,BAIE-COMEAU,QC,G4Z 1S8,CA,(1800) 4639915,49.2130523,-68.1776582,,,0
CHAUSSURES YELLOW,711292321,679 BOULEVARD LAFLECHE,,BAIE-COMEAU,QC,G5C 1C4,CA,(418) 5899108,49.2004525,-68.2567731,,,0
THE SHOE COMPANY,711293611,2022-99 STREET NW,,EDMONTON,AB,T6N 1L3,CA,,53.4499138817164,-113.485734302906,,,0
SHOE WAREHOUSE,711293478,2331 66TH STREET NW,,EDMONTON,AB,T6K 4B5,CA,,53.4544030769231,-113.434491153846,,,0
MARK'S WORK WEARHOUSE,711292827,1912 38 Avenue NW,,Edmonton,AB,T6T 0B9,CA,(780) 4625192,53.4789818,-113.3720596,,,0
MARK'S WORK WEARHOUSE,711292760,1404 99 Street,,Edmonton,AB,T6N 0A8,CA,(780) 4686793,53.4429621613733,-113.483465775375,,,0
MISTER SAFETY SHOES INC.,711293227,10163 13th Avenue,SOUTH EDMONTON COMMON,EDMONTON,AB,T6N 0B6,CA,(780) 5770909,53.4410993,-113.4900894,,,0
MARK'S WORK WEARHOUSE,711293116,6264 Currents Drive West,,Edmonton,AB,T6W 0L8,CA,(780) 4355713,53.4363515363367,-113.607271010604,,,0
MARK'S WORK WEARHOUSE,711292747,138 Main Street,,Sussex,NB,E4E 3E1,CA,(506) 4335370,45.7248288888889,-65.5274766666667,,,0
WORK AUTHORITY,711293853,5 - 240 SILVERCREEK PARKWAY N,,GUELPH,ON,N1H 1E7,CA,(519) 7805323,43.5334760714286,-80.2713732142857,,,0
THE SHOEPER STORE,711293724,130 SILVERCREEK PARKWAY N,,GUELPH,ON,N1H 7Y5,CA,(519) 7661523,43.540084,-80.280584,,,0
MARK'S WORK WEARHOUSE,711293039,492 Edinburgh Road S,,Guelph,ON,N1G 4Z1,CA,(519) 8370016,43.52083,-80.23522,,,0
SEARS,711293389,435 STONE ROAD WEST,STONE ROAD MALL,GUELPH,ON,N1G 3E5,CA,,43.5168533333333,-80.2378733333333,,,0
TSC STORES,711293787,545 SILVERCREEK PARKWAY N,,GUELPH,ON,N1K 1S7,CA,,43.5521871428571,-80.2973424489796,,,0
MISTER SAFETY SHOES INC.,711293240,335 WOODLAWN ROAD W,,GUELPH,ON,N1H 7K9,CA,(226) 2513066,43.5482915120211,-80.3004733549426,,,0
WORK AUTHORITY,711293848,415 THOMPSON DRIVE,,CAMBRIDGE,ON,N1T 2K7,CA,(519) 6204017,43.41121,-80.28897,,,0
MARK'S WORK WEARHOUSE,711293030,46 Pinebush Road,,Cambridge,ON,N1R 8K5,CA,(519) 6222450,43.4090515645433,-80.3221815506736,,,0
MARK'S WORK WEARHOUSE,711293212,c/o 46 Pinebush Road,,Cambridge,ON,N1R 8K5,CA,(226) 3394973,43.4090515645433,-80.3221815506736,,,0
THE SHOE COMPANY,711293627,30 PINEBUSH ROAD,,CAMBRIDGE,ON,N1R 8K5,CA,,43.4086,-80.324705,,,0
SEARS,711293381,355 HESPELER ROAD,CAMBRIDGE CENTRE,CAMBRIDGE,ON,N1R 6B3,CA,,43.3917103505692,-80.3227625725806,,,0
SHOETOPIA FOOTWEAR OUTLET,711293500,860 TOWER STREET S,,FERGUS,ON,N1M 3N7,CA,(519) 7871834,43.69524,-80.36564,,,0
TSC STORES,711293790,75 DUNDAS STREET N,,CAMBRIDGE,ON,N1R 6G5,CA,,43.3586152342568,-80.2940182451995,,,0
SHOES 22,711293496,64 GRAND AVENUE S,,CAMBRIDGE,ON,N1S 2L8,CA,(519) 7408093,43.355283,-80.31844,,,0
STEEL TOES WORKWEAR SPECIALIST,711293546,10520 100TH AVENUE,,FORT ST. JOHN,BC,V1J 1Z2,CA,(250) 7855888,56.24646,-120.856262121212,,,0
MARK'S WORK WEARHOUSE,711293199,9600 93 Avenue,,Fort St John,BC,V1J 5Z2,CA,(250) 7857799,56.24252,-120.83418,,,0
MARK'S WORK WEARHOUSE,711292732,1240 2A Avenue N,,Lethbridge,AB,T1H 0E4,CA,(403) 3803248,49.7010714,-112.8285548,,,0
SHOE WAREHOUSE,711293465,1240 2ND AVENUE A N,,LETHBRIDGE,AB,T1H 0E4,CA,,49.7010714,-112.8285548,,,0
MARK'S WORK WEARHOUSE,711292973,3728 Mayor Magrath Drive S,,Lethbridge,AB,T1K 7V1,CA,(403) 3810800,49.65748,-112.79284,,,0
SEARS,711293319,#65-401 1ST AVENUE SOUTH,PARK PLACE,LETHBRIDGE,AB,T1J 4L8,CA,,49.6601,-112.78712,,,0
CHAUSSURES YELLOW,711292289,30 BOULEVARD OMER-MARCIL,,SAINT-JEAN-SUR-RICHELIEU,QC,J2W 2X2,CA,(450) 3482218,45.33231,-73.29925,,,0
MARK'S WORK WEARHOUSE,711293050,50 Boul Omer-Marcil,,St-Jean-Sur-Richelieu,QC,J2W 2X2,CA,(450) 3496667,45.3316584,-73.2984828,,,0
SEARS,711293412,550 RUE PIERRE CAISSE,CARREFOUR DE RICHELIEU,ST. JEAN,QC,J3A 1M1,CA,,45.3317148979592,-73.2800814285714,,,0
CHAUSSURES RUBINO,711292171,1035 BOULEVARD DU SEMINAIRE NORD,,ST-JEAN-SUR-RICHELIEU,QC,J3A 1R7,CA,(450) 3494747,45.3377262,-73.2681043,,,0
G.H. BERGER LTEE,711292467,455 BOUL DU SEMINAIRE N,,SAINT JEAN SUR RICHELIE,QC,J3B 5L4,CA,(450) 3484916,45.3139691,-73.2638475,,,0
